good_or_bad,SiteAudittypeid,longitude,Soil_Type,latitude,Grower,Field,country,Sowing.dateDate.the.field.was.sown,Version_no,Did.you.irrigate.this.field.,barleyregion,region,Harvest.dateDate.this.field.was.harvested,AI_ID,MU_GLOBAL
Bad,0018ACBA-A35A-4A05-B335-A8754889B177,-112.01899999999999,[],43.4767,Wet & Wild LLC,Wet & Wild LLC > Lee's Field,UNITED STATES,2014-03-15 00:00:00,v3.0,Yes,(US) Eastern Idaho,(US) Idaho,2014-07-20 00:00:00,1124586,5045
Unknown,004F395A-ADAC-4908-A376-DA9EF1FA1FBA,-62.6307,[],-37.4358,Rodriguez,Rodriguez > La cabaña,ARGENTINA,2014-08-06 00:00:00,v3.0,No,(AR) SO - Puan,(AR) Buenos Aires,2014-12-21 00:00:00,6624715,12302
Bad,0087A247-3125-4026-BE1E-FC55A2F5B7F7,-53.2036,['sandy clay'],-31.4417,Irmãos Stark,Irmãos Stark > Silvio Stark,BRAZIL,2014-07-15 00:00:00,v3.0,No,(BR) Sul,(BR) Rio Grande do Sul,2014-11-17 00:00:00,6218944,12820
Unknown,009E6DB0-4477-4528-92D6-0E3857DC3258,-99.25,[],48.7833,Lynn Schmeiss,Lynn Schmeiss > 2014 Field,UNITED STATES,2014-06-10 00:00:00,v3.0,No,(US) NE Midwest,(US) North Dakota,2014-10-05 00:00:00,763411,4682
Unknown,00AEB5AD-9F51-4D07-9C81-7A781A598012,-60.6726,['sandy clay'],-38.5003,EXPL. LA JUTLANDIA,EXPL. LA JUTLANDIA > JUT,ARGENTINA,2014-07-28 00:00:00,v3.0,No,(AR) S - Copetona,(AR) Buenos Aires,2014-12-13 00:00:00,6698992,12302
Bad,010F8FD6-4274-4448-9DEB-A5D75BCF2E9E,-53.6077,"['clay (light)', 'clay(heavy)']",-28.9073,Irio Bohrz,Irio Bohrz > Cotribá IB 26,BRAZIL,2014-07-02 00:00:00,v3.0,No,(BR) Planalto,(BR) Rio Grande do Sul,2014-11-27 00:00:00,6045689,12864
Unknown,015A2BAA-1199-4732-B0D0-84FA7211D2A4,-103.087,[],46.7961,Jayme Lefor,Jayme Lefor > Herauf Field,UNITED STATES,2014-05-17 00:00:00,v3.0,No,(US) SW Midwest,(US) North Dakota,2014-09-20 00:00:00,897009,4826
Bad,016A49C6-127E-4A65-9DF5-CC29185B8C39,-114.22,['silty clay'],43.333999999999996,Silver Spring Ranch,Silver Spring Ranch > NW corner Price,UNITED STATES,2014-03-26 00:00:00,v3.0,Yes,(US) Southern Idaho,(US) Idaho,2014-08-02 00:00:00,1134456,5062
Unknown,018A97AA-F864-4F79-BE63-39A94AEBF132,-61.7836,[],-38.1842,Laurlund J Mauro,Laurlund J Mauro > Saldungaray,ARGENTINA,2014-06-15 00:00:00,v3.0,No,(AR) O - Rivera,(AR) Buenos Aires,2014-12-12 00:00:00,6679176,12302
Unknown,01C62280-5105-43A9-8658-4DBDFE2E9371,44.9184,[],53.986999999999995,"Agrosoyuz-Krasnoe seltso, LLC","Agrosoyuz-Krasnoe seltso, LLC > 75ha",RUSSIAN FEDERATION,2014-04-24 00:00:00,v3.0,No,(RU) Volgo-Vyatskiy,(RU) Mordovia,2014-08-08 00:00:00,408993,7569
Bad,01D6AD92-FCBF-404C-93AC-19EFE05B2289,-58.173,['sandy clay'],-33.5432,Leandro Malacria,Leandro Malacria > Agraciada,URUGUAY,2014-08-12 00:00:00,v3.0,No,(UY) Sur,(UY) Colonia,2014-11-28 00:00:00,6362426,27598
Good,0225B78C-0FCA-4179-8778-D26FD68B92ED,-62.1231,[],-38.0519,Marcolini Hns,Marcolini Hns > Campamento,ARGENTINA,2014-07-20 00:00:00,v3.0,No,(AR) O - Rivera,(AR) Buenos Aires,2014-12-20 00:00:00,6669272,12303
Unknown,0234DC5B-E274-440F-A351-AF7BAEB624F3,-112.083,['sandy clay'],43.648999999999994,Kirk Polatis,Kirk Polatis > 54 acres by plant,UNITED STATES,2013-04-06 00:00:00,v3.0,Yes,(US) Eastern Idaho,(US) Idaho,2013-08-10 00:00:00,1109735,5045
Unknown,02845045-CFCF-4686-B3D9-6DFF3E0128D9,101.56200000000001,['sandy clay'],38.262,Guolin Pu,Guolin Pu > Guolin Pu,CHINA,2014-03-28 00:00:00,v3.0,Yes,(CH) Gansu,(CH) Gansu,2014-09-03 00:00:00,1478971,11698
Unknown,02E51FF0-E354-425B-A31D-A9C92ACB7F41,-111.911,[],43.5714,SCOTT GILBERT,SCOTT GILBERT > 2014 Ririe Hwy,UNITED STATES,2014-04-21 00:00:00,v3.0,Yes,(US) Eastern Idaho,(US) Idaho,2014-09-04 00:00:00,1114687,5045
Unknown,03093D26-5A7A-495E-BAE7-D9EA4A2EAE19,-59.5324,[],-37.2283,Jorge Gorostegui,Jorge Gorostegui > La Pastora,ARGENTINA,2014-06-27 00:00:00,v3.0,No,(AR) SE - Tandil,(AR) Buenos Aires,2014-12-13 00:00:00,6614857,12249
Bad,0360FEBE-7A1D-45C9-9641-3483EFEDA5AB,-51.9147,"['clay (light)', 'clay(heavy)']",-28.0699,Elton Canalli,Elton Canalli > Campo 01,BRAZIL,2014-06-25 00:00:00,v3.0,No,(BR) Norte,(BR) Rio Grande do Sul,2014-11-02 00:00:00,5991262,12864
Good,03A72E57-DF61-4261-A26A-3F9C7ED6BF65,-62.0646,[],-37.681999999999995,Fajin,Fajin > La Mariana,ARGENTINA,2014-07-25 00:00:00,v3.0,No,(AR) SO - Suarez,(AR) Buenos Aires,2014-12-23 00:00:00,6644522,12302
Unknown,03CF147C-BEE6-496C-981C-C8BBBB0C94E6,-61.2349,[],-36.0305,herreras vegas,herreras vegas > La Magdalena,ARGENTINA,2014-06-25 00:00:00,v3.0,No,(AR) O - Daireaux,(AR) Buenos Aires,2014-12-06 00:00:00,6530684,12293
Unknown,04CD03C8-13EA-4CE1-A0EC-600EF382EBF6,-60.0713,[],-38.7008,EL RESUEYO SA DE VAN STRIEN,EL RESUEYO SA DE VAN STRIEN > EL RESUEYO,ARGENTINA,2014-06-24 00:00:00,v3.0,No,(AR) S - Carretero,(AR) Buenos Aires,2014-12-15 00:00:00,6713850,12302
Unknown,04E341EA-0CA2-4695-AE92-0FBCC0EC3237,-98.1408,[],47.1176,Kevin Muncy,Kevin Muncy > 2014 Section 15,UNITED STATES,2014-05-15 00:00:00,v3.0,No,(US) NE Midwest,(US) North Dakota,2014-08-29 00:00:00,877277,4668
Bad,05269305-A7B3-44EC-A146-5962B2824927,-51.0129,"['clay (light)', 'clay(heavy)']",-28.0859,Alaor Scariot,Alaor Scariot > Faz. Esmeralda,BRAZIL,2014-07-14 00:00:00,v3.0,No,(BR) Norte,(BR) Rio Grande do Sul,2014-11-07 00:00:00,5991274,12644
Bad,05309964-C2F9-4683-BC0C-A2D974B70F67,-52.0048,"['clay (light)', 'clay(heavy)']",-28.1081,Edino Dalmina,Edino Dalmina > Campo 01,BRAZIL,2014-06-15 00:00:00,v3.0,No,(BR) Norte,(BR) Rio Grande do Sul,2014-10-30 00:00:00,5991261,12864
Unknown,055579A6-8EB6-4093-8696-63A104EA6F65,-58.0201,[],-38.0835,Caballeri,Caballeri > Marilan,ARGENTINA,2014-06-20 00:00:00,v3.0,No,(AR) SO - Suarez,(AR) Buenos Aires,2014-12-15 00:00:00,6669328,12249
Good,05C8B939-F044-44BB-8B87-254A72CC3EFA,96.781,['sandy clay'],39.859,Fenzhong  Wu,Fenzhong  Wu > Fenzhong wu,CHINA,2014-04-01 00:00:00,v3.0,Yes,(CH) Gansu,(CH) Gansu,2014-08-25 00:00:00,1370006,11697
Unknown,06049B9D-9B69-46B5-9E30-7E24FBCEA951,-60.211999999999996,['sandy clay'],-38.2503,GOÑI JESUS HECTOR,GOÑI JESUS HECTOR > TRESA,ARGENTINA,2014-08-19 00:00:00,v3.0,No,(AR) S - Copetona,(AR) Buenos Aires,2014-12-29 00:00:00,6684148,12302
Bad,06583BB6-469F-418D-8D51-49211C2F2377,-57.5758,[],-33.5418,Mariano Joraguria,Mariano Joraguria > Camino,URUGUAY,2014-06-23 00:00:00,v3.0,No,(UY) Sur,(UY) Colonia,,6362434,27602
Unknown,06BE001B-9BEF-4172-9EC6-94A05121B4C2,-111.68799999999999,[],43.5853,Hamilton Triple C Farms,Hamilton Triple C Farms > Keith Pivot,UNITED STATES,2014-04-15 00:00:00,v3.0,Yes,(US) Eastern Idaho,(US) Idaho,2014-08-18 00:00:00,1114690,4782
Unknown,06DF87FF-0CBC-4EE5-A46C-3380E94899B4,-112.10600000000001,[],43.6133,Brett Jensen Farms,Brett Jensen Farms > #6 35th & 129th,UNITED STATES,2014-03-25 00:00:00,v3.0,Yes,(US) Eastern Idaho,(US) Idaho,2014-08-10 00:00:00,1114685,5045
Good,06E96D12-D015-4CFA-BC20-A13A14F0EC35,-111.985,[],43.7435,Roger Clark,Roger Clark > Roger 1,UNITED STATES,2014-04-04 00:00:00,v3.0,Yes,(US) Eastern Idaho,(US) Idaho,2014-08-11 00:00:00,1104786,5045
Unknown,071FA4E4-5175-45F4-8B10-F67A4200EF13,121.684,"['clay (light)', 'clay(heavy)']",50.488,IM-33>Jie Fu,IM-33>Jie Fu > IM-41,CHINA,2014-05-19 00:00:00,v3.0,No,(CN) Hailaer,(CN) Inner Mongolia,2014-09-01 00:00:00,647648,11407
Unknown,0750D8B0-04D2-4892-BE89-69BCF5FCE6D6,101.546,['sandy clay'],38.299,Yonghong Yang,Yonghong Yang > Yonghong Yang,CHINA,2014-04-01 00:00:00,v3.0,Yes,(CH) Gansu,(CH) Gansu,2014-09-05 00:00:00,1478971,11256
Unknown,0783FA8D-B3E3-431F-8165-CE7B9EAE4A98,101.976,"['clay (light)', 'clay(heavy)']",38.251999999999995,Wu   Zhou,Wu   Zhou > Wu Bin,CHINA,2014-03-05 00:00:00,v3.0,Yes,(CH) Gansu,(CH) Gansu,2014-08-01 00:00:00,1478977,11698
Unknown,078A693F-F3D9-4B85-A0E0-15C465508239,-99.319,[],48.2745,Hermansdale Farms,Hermansdale Farms > 2014 Section 6,UNITED STATES,2014-05-17 00:00:00,v3.0,No,(US) NE Midwest,(US) North Dakota,2014-08-22 00:00:00,798060,4668
Unknown,07F24EED-FD43-4379-BC00-C88CF9D4665F,-111.723,['sandy clay'],43.8439,Bob Huskinson,Bob Huskinson > Across from shop,UNITED STATES,2014-04-28 00:00:00,v3.0,Yes,(US) Eastern Idaho,(US) Idaho,2014-08-15 00:00:00,1099840,5045
Unknown,07FBDA33-AE63-44E7-90C6-A252855D86BF,-57.4342,"['clay (light)', 'clay(heavy)']",-32.2227,Full agro,Full agro > Ch3 ruta 90,URUGUAY,2014-06-21 00:00:00,v3.0,No,(UY) Norte,(UY) Paysandu,2014-11-10 00:00:00,6273336,27597
Bad,08415E74-CF86-4466-A78F-C1EB1E5D38BC,-112.949,['sandy clay'],43.809,Woodie Land and Livestock,Woodie Land and Livestock > Field 1,UNITED STATES,2014-04-01 00:00:00,v3.0,Yes,(US) Eastern Idaho,(US) Idaho,2014-08-01 00:00:00,1099823,5049
Unknown,085BF932-8BE0-46FC-BD95-FC1C8DE82346,-52.5589,"['clay (light)', 'clay(heavy)']",-27.8087,Pedro Corteze,Pedro Corteze > Campo Jacutinga,BRAZIL,2014-06-13 00:00:00,v3.0,No,(BR) Norte,(BR) Rio Grande do Sul,2014-10-28 00:00:00,5971453,12864
Bad,0868D23D-81DF-45B0-9491-DDF51BACB001,-104.037,[],47.8172,HJJP Asbeck,HJJP Asbeck > Denowh,UNITED STATES,2014-04-09 00:00:00,v3.0,Yes,(US) Mondak,(US) Montana,2014-08-03 00:00:00,827696,4814
Unknown,0869E1D7-E98C-453E-AD5B-AEAD37E1CA3B,-99.8114,['sandy clay'],46.5302,Troy Jangula,Troy Jangula > 2014 Section 32,UNITED STATES,2014-05-15 00:00:00,v3.0,No,(US) SW Midwest,(US) North Dakota,2014-08-12 00:00:00,916854,4667
Bad,08B95743-8C6B-4523-BB91-71C7336ACD3F,-58.1451,['sandy clay'],-31.8956,Jose Duret,Jose Duret > casas Arroyo Malo,URUGUAY,2014-07-08 00:00:00,v3.0,No,(UY) Norte,(UY) Paysandu,2014-11-27 00:00:00,6248576,27597
Unknown,08BB58A4-D003-4736-9B14-7CE9294D6C3A,-60.4021,['silty clay'],-38.4534,Agronomía R Pérez,Agronomía R Pérez > ARP 1,ARGENTINA,2014-07-19 00:00:00,v3.0,No,(AR) S - Carretero,(AR) Buenos Aires,2014-12-21 00:00:00,6694045,12302
Unknown,08CC4434-C0D9-4B08-A1B7-4C90D88702E0,-61.9315,[],-35.7953,Durisotti Jorge,Durisotti Jorge > Durisotti,ARGENTINA,2014-06-25 00:00:00,v3.0,No,(AR) CN - Bragado,(AR) Buenos Aires,2014-12-12 00:00:00,6515824,12293
Bad,091C8C59-5E29-44F8-AEC8-2CABEF5D4206,-52.8858,"['clay (light)', 'clay(heavy)']",-30.2722,Tiago A. N. Hoerbe,Tiago A. N. Hoerbe > Cachoeira 10,BRAZIL,2014-06-10 00:00:00,v3.0,No,(BR) Sul,(BR) Rio Grande do Sul,2014-11-17 00:00:00,6139749,12611
Unknown,091F2796-21E4-4BCE-AD75-FC7CF95C1EEF,100.62899999999999,[],38.644,Xuexiao Zheng,Xuexiao Zheng > Xuexiao Zheng,CHINA,2014-04-01 00:00:00,v3.0,Yes,(CH) Gansu,(CH) Gansu,2014-07-25 00:00:00,1454209,11268
Bad,0957137F-E737-4125-BC5F-E53ABFABF047,-62.766999999999996,[],-37.6664,Bottino,Bottino > Los Campos,ARGENTINA,2014-07-05 00:00:00,v3.0,No,(AR) SO - Suarez,(AR) Buenos Aires,2014-12-20 00:00:00,6644513,12303
Bad,0972065D-5DEE-4665-8F15-AE9379D72749,-58.0095,[],-33.8645,Paolo Cerruti,Paolo Cerruti > Palo Solo,URUGUAY,2014-06-10 00:00:00,v3.0,No,(UY) Sur,(UY) Colonia,,6382228,27598
Unknown,09820458-E67F-4B80-AD4C-6F870045ABF1,121.255,"['clay (light)', 'clay(heavy)']",48.875,IM-39>Tianyou Zai,IM-39>Tianyou Zai > IM-39,CHINA,2014-05-19 00:00:00,v3.0,No,(CN) Hailaer,(CN) Inner Mongolia,2014-09-02 00:00:00,756542,11119
Bad,09EC7A78-7855-4927-8AAB-B0E236AEFB90,-62.7892,[],-37.5906,Heit,Heit > La Grampa,ARGENTINA,2014-08-08 00:00:00,v3.0,No,(AR) SO - Puan,(AR) Buenos Aires,2014-12-15 00:00:00,6639562,12303
Bad,0A04E40F-0CB0-4E0B-83A3-6BE3382CC302,-111.915,[],47.6401,Peace Farms Inc,Peace Farms Inc > Field 1,UNITED STATES,2014-04-20 00:00:00,v3.0,Yes,(US) Fairfield,(US) Montana,2014-08-20 00:00:00,837487,4814
Unknown,0A2E50EE-0315-433B-BD6F-EB06A0385915,34.5616,[],51.2238,"КФХ ""Фермер Ткачев""","КФХ ""Фермер Ткачев"" > 50 га",RUSSIAN FEDERATION,2014-03-24 00:00:00,v3.0,No,(RU) Central,(RU) Kursk,2014-07-26 00:00:00,596951,8453
Unknown,0A99E7FB-E19E-4EAA-A4E2-E65D387A54E3,42.9819,[],53.0005,"Bashmakovskiy khleb, CJSC","Bashmakovskiy khleb, CJSC > 149 ha",RUSSIAN FEDERATION,2014-04-20 00:00:00,v3.0,No,(RU) Volgo-Vyatskiy,(RU) Penza,2014-08-12 00:00:00,478266,7555
Unknown,0ABE9B7D-BBD3-4A19-B395-B5ED0600FDCA,100.454,[],38.574,Wei Duo,Wei Duo > Wei Duo,CHINA,2014-04-01 00:00:00,v3.0,Yes,(CH) Gansu,(CH) Gansu,2014-08-15 00:00:00,1459156,11180
Unknown,0B256F6C-0E44-440D-A9C2-C1C273CF4262,-53.9397,"['clay (light)', 'clay(heavy)']",-30.3119,Leomar Serafini,Leomar Serafini > Cachoeira 6,BRAZIL,2014-07-20 00:00:00,v3.0,No,(BR) Sul,(BR) Rio Grande do Sul,2014-11-10 00:00:00,6144684,12820
Unknown,0B45CD73-448C-462C-A6C2-A8BD81BB2A8C,45.2627,[],54.1336,"Lukhovskoe, SUE RM","Lukhovskoe, SUE RM > Expl_64ha_2014",RUSSIAN FEDERATION,2014-04-16 00:00:00,v3.0,No,(RU) Volgo-Vyatskiy,(RU) Mordovia,2014-08-01 00:00:00,399098,7569
Unknown,0B90E468-F14F-4028-AA36-10BF241D8A45,102.027,['sandy clay'],38.431,Peng Lin,Peng Lin > Pengl Lin,CHINA,2014-03-20 00:00:00,v3.0,Yes,(CH) Gansu,(CH) Gansu,2014-08-10 00:00:00,1469078,11287
Bad,0B940C19-80D4-4D2E-B80D-A09628F7FA8D,-52.8901,"['clay (light)', 'clay(heavy)']",-28.6717,Sadi Maldaner,Sadi Maldaner > Maldaner,BRAZIL,2014-06-06 00:00:00,v3.0,No,(BR) Planalto,(BR) Rio Grande do Sul,2014-10-25 00:00:00,6030849,12864
Unknown,0BB713E9-5063-4FA8-B298-816735F55664,-61.5021,[],-37.8855,Pucara,Pucara > San Jose,ARGENTINA,2014-08-07 00:00:00,v3.0,No,(AR) SO - Suarez,(AR) Buenos Aires,2014-12-25 00:00:00,6659380,12301
Good,0BEB2388-0C4B-4B6F-9940-53219A3CB8F6,-59.2565,[],-37.2868,AGROPECUARIA DON NIKOLA S.A.,AGROPECUARIA DON NIKOLA S.A. > Don Nikola,ARGENTINA,2014-07-29 00:00:00,v3.0,No,(AR) SE - Tandil,(AR) Buenos Aires,2014-12-26 00:00:00,6614861,12249
Unknown,0BF486E8-37AC-4525-8CB5-48829883A7D1,-59.4028,[],-37.5053,AGROVELA S.A.,AGROVELA S.A. > Agrovarela,ARGENTINA,2014-05-26 00:00:00,v3.0,No,(AR) SE - Tandil,(AR) Buenos Aires,2014-12-12 00:00:00,6629709,12249
Unknown,0C13A82A-AAF2-407E-8278-40177B0B2C26,120.76299999999999,['sandy clay'],32.918,Zhengwei Zhu,Zhengwei Zhu > Zhengwei Zhang,CHINA,2013-11-04 00:00:00,v3.0,Yes,(CN) Yancheng,(CN) Jiangsu,2014-05-11 00:00:00,1845535,11522
Good,0C25F69E-3DC0-47C5-85A0-937738E61897,-102.36,[],48.98,Kristian Sorum,Kristian Sorum > NorthSjues,UNITED STATES,2014-05-12 00:00:00,v3.0,No,(US) NW Midwest,(US) North Dakota,2014-09-20 00:00:00,748519,4814
Unknown,0C2EF488-1310-4EE9-A39F-B0FB135FB778,-101.573,[],48.9008,David Steeves,David Steeves > 2014 Section 33,UNITED STATES,2014-05-15 00:00:00,v3.0,No,(US) NW Midwest,(US) North Dakota,2014-09-06 00:00:00,753479,4668
Unknown,0C4ACA89-8A13-4AA2-99C0-CE74934AC0ED,102.035,[],38.428000000000004,Zhihu LI,Zhihu LI > Zhihu Li,CHINA,2014-03-15 00:00:00,v3.0,Yes,(CH) Gansu,(CH) Gansu,2014-08-10 00:00:00,1469078,11287
Good,0C65C65B-29E2-4F7F-8001-DDA1738A6CA6,-58.4025,[],-37.8841,Arturo Roca,Arturo Roca > Cer,ARGENTINA,2014-06-28 00:00:00,v3.0,No,(AR) SE - Tandil,(AR) Buenos Aires,2014-12-27 00:00:00,6659423,12249
Bad,0CDBCA3C-43C2-401B-880F-B9FAB5B01BD1,-111.72,[],42.55,Mark Mathews,Mark Mathews > Keith's,UNITED STATES,2014-04-11 00:00:00,v3.0,Yes,(US) Eastern Idaho,(US) Idaho,2014-08-25 00:00:00,1183990,4782
Bad,0CE008EE-3C71-44A1-945D-39B0B2E3F7D9,-52.3803,"['clay (light)', 'clay(heavy)']",-27.9466,Gustavo Beledelli,Gustavo Beledelli > Campo 01,BRAZIL,2014-05-30 00:00:00,v3.0,No,(BR) Norte,(BR) Rio Grande do Sul,2014-10-24 00:00:00,5981356,12864
Bad,0CEB6C42-6519-4930-B6AA-C4BABD67DE43,45.3704,[],54.5353,Pushkinsky,Pushkinsky > Explorer_118ha,RUSSIAN FEDERATION,2014-04-20 00:00:00,v3.0,No,(RU) Volgo-Vyatskiy,(RU) Mordovia,2014-08-20 00:00:00,374349,7576
Unknown,0CECE494-3BF6-4E51-8C8E-E5AAC502E63E,44.453,[],54.1747,"Staroshaygovagrokhimremont, LLC","Staroshaygovagrokhimremont, LLC > Beatrix_100ha",RUSSIAN FEDERATION,2014-04-20 00:00:00,v3.0,No,(RU) Volgo-Vyatskiy,(RU) Mordovia,2014-08-10 00:00:00,399086,8044
Unknown,0D2AB482-68BD-45BE-94D4-DEA92FC1035E,-59.9637,['silty clay'],-38.0162,Javier Barcellandi,Javier Barcellandi > JB Lote 1,ARGENTINA,2014-07-12 00:00:00,v3.0,No,(AR) S - Carretero,(AR) Buenos Aires,2014-12-18 00:00:00,6664351,12302
Bad,0D4D6004-32C1-464D-8B0B-A31A1A8EEFA2,-53.1558,"['clay (light)', 'clay(heavy)']",-29.1165,Rudinei Cherubini,Rudinei Cherubini > Salto do Jacuí 10,BRAZIL,2014-06-03 00:00:00,v3.0,No,(BR) Centro,(BR) Rio Grande do Sul,2014-10-24 00:00:00,6060545,12864
Unknown,0D8BE52C-AA2F-432D-8566-9FBDDD87A85C,120.227,['sandy clay'],33.681999999999995,Shengdong Wu,Shengdong Wu > Shengdong Wu,CHINA,2013-11-02 00:00:00,v3.0,Yes,(CN) Yancheng,(CN) Jiangsu,2014-05-25 00:00:00,1791078,11530
Unknown,0DB650D2-5D59-4F3E-9EEB-B8EF95BD0D20,-111.88799999999999,[],47.6286,Holten Pearson,Holten Pearson > Field 1,UNITED STATES,2014-04-12 00:00:00,v3.0,Yes,(US) Fairfield,(US) Montana,2014-08-22 00:00:00,842438,4814
Unknown,0E092EDD-4870-4163-A283-1A0020C146F7,-62.2531,[],-37.34,Pedelaborde,Pedelaborde > El Recuerdo,ARGENTINA,2014-07-25 00:00:00,v3.0,No,(AR) SO - Suarez,(AR) Buenos Aires,2014-12-12 00:00:00,6619770,12301
Bad,0E1C529E-42DD-4CC4-AB28-B7530F371014,-51.9537,"['clay (light)', 'clay(heavy)']",-27.5711,Jandir Luiz Cesari,Jandir Luiz Cesari > Campo 01,BRAZIL,2014-06-19 00:00:00,v3.0,No,(BR) Norte,(BR) Rio Grande do Sul,2014-11-02 00:00:00,5956611,12842
Unknown,0E45662E-5C03-4D81-AA62-012A56953FBE,-62.2817,[],-37.0606,raul carabajal,raul carabajal > Entrebañon,ARGENTINA,2014-06-26 00:00:00,v3.0,No,(AR) O - Rivera,(AR) Buenos Aires,2014-12-05 00:00:00,6599969,12302
Bad,0E73153F-A0CA-4C6E-8CC7-703067658FBF,-111.618,['silty clay'],48.7828,CIRCLE 7 FARMS,CIRCLE 7 FARMS > 640 SEC,UNITED STATES,2014-04-28 00:00:00,v3.0,No,(US) Conrad,(US) Montana,2014-09-10 00:00:00,763241,4830
Unknown,0E9AB7FD-640E-431A-916D-C77331F16D5F,-111.881,[],47.4971,Klick Angus Inc,Klick Angus Inc > Field 1,UNITED STATES,2014-04-26 00:00:00,v3.0,Yes,(US) Fairfield,(US) Montana,2014-08-16 00:00:00,847388,4814
Good,0EAFDED6-EC3F-4E77-A6A4-B7837C197BD6,-100.21600000000001,[],46.5711,Eric Voller,Eric Voller > 2014 Section 10,UNITED STATES,2014-05-10 00:00:00,v3.0,No,(US) SE Midwest,(US) North Dakota,2014-08-25 00:00:00,911898,4814
Bad,0EC2E5FC-9621-4FD8-8268-B39E051FD04F,-57.5741,[],-34.0659,H. Frip,H. Frip > Newton,URUGUAY,2014-06-28 00:00:00,v3.0,No,(UY) Sur,(UY) Colonia,2014-12-02 00:00:00,6397084,27601
Unknown,0F4F821D-8B0B-4829-A0F4-4D7C7152864C,-112.053,['sandy clay'],48.1742,Ronald W. Warwick,Ronald W. Warwick > Warwick 20,UNITED STATES,2014-04-22 00:00:00,v3.0,No,(US) Conrad,(US) Montana,2014-08-12 00:00:00,802835,4814
Unknown,0F52CBFD-C687-408E-B484-23972C889700,-62.2792,[],-37.4994,Anglade,Anglade > RANCHO,ARGENTINA,2014-07-21 00:00:00,v3.0,No,(AR) SO - Puan,(AR) Buenos Aires,2014-12-15 00:00:00,6629670,12302
Unknown,0F55E6F4-F65D-4113-8F75-12104AAD96CD,-98.8746,[],48.549,Glenn Morstad,Glenn Morstad > 2014 Field,UNITED STATES,2014-05-29 00:00:00,v3.0,No,(US) NE Midwest,(US) North Dakota,2014-08-25 00:00:00,778267,4682
Unknown,0F59BC56-B7DC-4389-9CAA-A7C2026460A9,-62.4639,[],-37.5021,Tizón,Tizón > Santa Orosia,ARGENTINA,2014-07-20 00:00:00,v3.0,No,(AR) SO - Suarez,(AR) Buenos Aires,2014-12-19 00:00:00,6629667,12302
Unknown,0FD2942B-2AD5-43A5-AF92-764B02F63323,-111.948,[],48.2236,orcutt bros,orcutt bros > 120 ac,UNITED STATES,2014-04-22 00:00:00,v3.0,No,(US) Conrad,(US) Montana,2014-08-14 00:00:00,797887,4814
Unknown,0FDC3AC1-6425-493A-901B-8748376CEFFD,-98.4725,[],47.9405,Gillett Bros,Gillett Bros > 2014 Section 33,UNITED STATES,2014-05-20 00:00:00,v3.0,No,(US) NE Midwest,(US) North Dakota,2014-08-15 00:00:00,817872,4668
Bad,0FFCCF46-1ABF-4807-B17F-92300C2A6A6A,-52.8654,"['clay (light)', 'clay(heavy)']",-28.695,Antonio Everaldo Oppelt,Antonio Everaldo Oppelt > Oppelt,BRAZIL,2014-06-05 00:00:00,v3.0,No,(BR) Planalto,(BR) Rio Grande do Sul,2014-11-02 00:00:00,6030849,12864
Bad,100E1078-6104-4106-AB37-B694171234C8,-62.37,[],-37.5326,Pomies,Pomies > El Rancho,ARGENTINA,2014-07-05 00:00:00,v3.0,No,(AR) SO - Suarez,(AR) Buenos Aires,2014-12-12 00:00:00,6634618,12302
Unknown,1025F0CB-111C-4687-9FAF-7DFD1B5F5AE8,-112.079,[],43.5915,D BRAD REED,D BRAD REED > 2014 Sacaguchis,UNITED STATES,2014-04-06 00:00:00,v3.0,Yes,(US) Eastern Idaho,(US) Idaho,2014-08-12 00:00:00,1114685,5045
Bad,10282B59-686A-4470-9E4A-DFC14335D848,121.512,"['clay (light)', 'clay(heavy)']",49.33,IM-14>Gaonan Luo,IM-14>Gaonan Luo > IM-14,CHINA,2014-05-19 00:00:00,v3.0,No,(CN) Hailaer,(CN) Inner Mongolia,2014-08-31 00:00:00,726846,11119
Bad,1097FF39-FEA0-41F3-B2B5-F8F91314AC15,-63.0035,['silty clay'],-37.5239,sardiña,sardiña > Don Julian,ARGENTINA,2014-07-03 00:00:00,v3.0,No,(AR) SO - Puan,(AR) Buenos Aires,2014-12-15 00:00:00,6634610,12303
Unknown,10C835B8-BCD2-439A-98FA-817A588D133A,-60.5228,[],-34.4831,Decarre Ulises,Decarre Ulises > Decarre,ARGENTINA,2014-06-20 00:00:00,v3.0,No,(AR) CN - Bragado,(AR) Buenos Aires,2014-12-04 00:00:00,6426744,12290
Unknown,10C88E63-DAC0-4239-A720-65571C425A81,-111.979,[],47.6693,"K Farms, Inc","K Farms, Inc > Field 1",UNITED STATES,2014-05-02 00:00:00,v3.0,Yes,(US) Fairfield,(US) Montana,2014-08-28 00:00:00,837486,4814
Unknown,10F5B17C-A770-4C1C-A048-ADEA97C6B898,-111.17399999999999,['sandy clay'],43.836000000000006,Robson Farms,Robson Farms > Field 1,UNITED STATES,2014-05-15 00:00:00,v3.0,Yes,(US) Eastern Idaho,(US) Idaho,2014-09-09 00:00:00,1099847,4782
Unknown,116A4A8A-0E53-44AC-9F84-C3593B75181F,-112.539,[],43.8802,Ken Bare,Ken Bare > Stewart Field,UNITED STATES,2014-03-28 00:00:00,v3.0,Yes,(US) Eastern Idaho,(US) Idaho,2014-08-10 00:00:00,1094879,5049
Unknown,11A5268E-9DE6-4ED7-BC50-45B713D7C05F,-111.816,[],47.6548,John Scott,John Scott > Field 1,UNITED STATES,2014-04-05 00:00:00,v3.0,Yes,(US) Fairfield,(US) Montana,2014-08-13 00:00:00,837489,4814
Unknown,1203EC74-2773-462E-91DC-616E454AFA54,-99.22200000000001,['silty clay'],47.7819,Mark Seastrand,Mark Seastrand > 2014 Section 27,UNITED STATES,2014-05-08 00:00:00,v3.0,No,(US) NE Midwest,(US) North Dakota,2014-08-29 00:00:00,827762,4668
Unknown,123D13D8-4BCE-4A45-AE8F-729F8AC09D48,-57.3303,"['clay (light)', 'clay(heavy)']",-34.1696,Alan Félix,Alan Félix > Km 112,URUGUAY,2014-08-12 00:00:00,v3.0,No,(UY) Sur,(UY) Colonia,2014-12-11 00:00:00,6406988,27601
Unknown,126D0C5D-D09C-454F-B48A-A999598F125C,121.51799999999999,"['clay (light)', 'clay(heavy)']",49.321000000000005,IM-07>Hongchang Peng,IM-07>Hongchang Peng > IM-07,CHINA,2014-05-21 00:00:00,v3.0,No,(CN) Hailaer,(CN) Inner Mongolia,2014-09-02 00:00:00,726846,11119
Unknown,12F8FDF9-658F-42A5-9BBE-E1908FCEF970,100.59200000000001,[],38.543,Junbo Wang,Junbo Wang > Junbo Wang,CHINA,2014-04-08 00:00:00,v3.0,Yes,(CH) Gansu,(CH) Gansu,2014-08-14 00:00:00,1459158,11697
Bad,131B79EF-5716-4C1B-B362-E37CEF6AC91B,-51.9592,"['clay (light)', 'clay(heavy)']",-28.0436,Jose Comiran,Jose Comiran > Campo 01,BRAZIL,2014-06-25 00:00:00,v3.0,No,(BR) Norte,(BR) Rio Grande do Sul,2014-11-04 00:00:00,5986311,12864
Unknown,132883D9-9132-4AB3-9E8C-542B10E8CB12,-62.6868,['sandy clay'],-37.1563,Facundo Garcia,Facundo Garcia > Carhue-Lote,ARGENTINA,2014-06-07 00:00:00,v3.0,No,(AR) O - Rivera,(AR) Buenos Aires,2014-12-10 00:00:00,6609864,12303
Bad,133E565F-4678-4375-949C-46B2AE6FE787,-58.0112,"['clay (light)', 'clay(heavy)']",-32.1954,A. Stanko,A. Stanko > Alejandro Stanko > Tapera,URUGUAY,2014-06-22 00:00:00,v3.0,No,(UY) Norte,(UY) Paysandu,2014-11-17 00:00:00,6268378,27598
Bad,134F2125-A45B-400C-BE8A-3BC8FC7CE5BE,-57.9945,['silty clay'],-32.437,"Fajardo, Claudia","Fajardo, Claudia > Conde",URUGUAY,2014-06-20 00:00:00,v3.0,No,(UY) Norte,(UY) Paysandu,2014-11-25 00:00:00,6288178,27598
Bad,1365E51D-06B3-4C89-8879-D30E2DFD12D5,79.90899999999999,['sandy clay'],53.3766,Shnaider,Shnaider > Shaider - 4,RUSSIAN FEDERATION,2014-06-04 00:00:00,v3.0,No,(RU) West Siberia,(RU) Altai,2014-09-20 00:00:00,454024,7523
Good,1378C50D-95AD-4582-9355-87E1E2D9414D,119.964,[],33.951,Congshan Lu,Congshan Lu > Congshan Lu,CHINA,2013-11-03 00:00:00,v3.0,Yes,(CN) Yancheng,(CN) Jiangsu,2014-05-23 00:00:00,1771274,11662
Bad,13B63C66-5A6D-4845-B38E-46A990EDBDAC,-112.061,[],47.873999999999995,Harold Baker,Harold Baker > Field 1,UNITED STATES,2014-05-01 00:00:00,v3.0,Yes,(US) Fairfield,(US) Montana,2014-08-20 00:00:00,822635,4814
Unknown,13D92262-7DFE-4AE1-84D7-4707FD7F6D06,-57.8282,[],-31.8006,Sarazola y Vercellino,Sarazola y Vercellino > unica,URUGUAY,2014-06-20 00:00:00,v3.0,No,(UY) Norte,(UY) Paysandu,2014-11-18 00:00:00,6243631,27597
Bad,13DAB81B-551A-4266-AD59-D2FB63148EBE,72.8328,[],54.5547,Luft,Luft > Luft - 26,RUSSIAN FEDERATION,2014-05-28 00:00:00,v3.0,No,(RU) West Siberia,(RU) Omsk,2014-09-17 00:00:00,369777,7461
Good,13DD8F75-BF1D-4581-B68B-CE05A1218DDB,120.098,[],33.973,Wenxiu Zhang,Wenxiu Zhang > Wenxiu Zhang,CHINA,2013-11-10 00:00:00,v3.0,Yes,(CN) Yancheng,(CN) Jiangsu,2014-05-25 00:00:00,1771276,11681
Unknown,13EFE341-9324-4040-A232-60F77192A0D0,-98.4746,[],48.4356,Joe Pesek,Joe Pesek > 2014 Sec 11,UNITED STATES,2014-05-20 00:00:00,v3.0,No,(US) NE Midwest,(US) North Dakota,2014-08-21 00:00:00,783222,4682
Bad,14178093-729E-4E4F-9ABE-D60BD93B8D71,-57.5769,[],-32.1725,Borelan La Cumbre,Borelan La Cumbre > 10,URUGUAY,2014-06-18 00:00:00,v3.0,No,(UY) Norte,(UY) Paysandu,2014-11-11 00:00:00,6268384,27597
Unknown,1427122C-41C8-40F9-AD00-382ADEF64E66,-112.34899999999999,[],47.586999999999996,Fred Ginther,Fred Ginther > Field 1,UNITED STATES,2014-05-11 00:00:00,v3.0,Yes,(US) Fairfield,(US) Montana,2014-08-14 00:00:00,842431,4814
Bad,145CAE2E-9471-4E4D-9898-E355451F66E7,-53.0968,"['clay (light)', 'clay(heavy)']",-30.267,Vianei A. Durigon,Vianei A. Durigon > Cachoeira 11,BRAZIL,2014-07-15 00:00:00,v3.0,No,(BR) Sul,(BR) Rio Grande do Sul,2014-11-10 00:00:00,6139746,12611
Unknown,145E3264-21ED-4EE1-84B7-505E8767B0B7,-58.0304,[],-32.2432,José Cristaldo,José Cristaldo > Cangué,URUGUAY,2014-06-23 00:00:00,v3.0,No,(UY) Norte,(UY) Paysandu,2014-11-24 00:00:00,6273328,27598
Unknown,14639B11-C621-4EFA-AA2C-FA89277FE13D,-61.8934,[],-37.3733,Ernesto Tarnousky SA,Ernesto Tarnousky SA > El Bacan,ARGENTINA,2014-08-05 00:00:00,v3.0,No,(AR) SO - Suarez,(AR) Buenos Aires,2014-12-12 00:00:00,6624725,12301
Unknown,149FCB13-F3C7-4A89-8849-51A11F64A1AA,35.591,"['clay (light)', 'clay(heavy)']",51.2134,"КХ ""Бабино""","КХ ""Бабино"" > 155 га",RUSSIAN FEDERATION,2014-03-26 00:00:00,v3.0,No,(RU) Central,(RU) Kursk,2014-08-17 00:00:00,596965,7497
Unknown,14B1055C-BBE1-4D48-A51E-6A882E030107,120.311,['sandy clay'],33.103,Xinhua Yuan,Xinhua Yuan > Xinhua Yuan,CHINA,2013-11-02 00:00:00,v3.0,Yes,(CN) Yancheng,(CN) Jiangsu,2014-05-24 00:00:00,1830679,11623
Unknown,14B200E9-514B-4FB4-8F43-E7698D6A1AF5,-111.883,[],47.6399,Greg McInerney,Greg McInerney > Field 1,UNITED STATES,2014-04-16 00:00:00,v3.0,Yes,(US) Fairfield,(US) Montana,2014-08-17 00:00:00,837488,4814
Unknown,14C47C95-DD2B-4716-A3B6-37EA0B483619,-112.133,[],43.3529,Kirklan Oler,Kirklan Oler > 84 ACRES,UNITED STATES,2013-04-03 00:00:00,v3.0,Yes,(US) Eastern Idaho,(US) Idaho,2013-08-20 00:00:00,1129534,5045
Unknown,14E4B89F-7CE2-4D66-8317-66BC5BCE5559,102.815,['silty clay'],37.681999999999995,Sheng Cao,Sheng Cao > Sheng  Bao,CHINA,2014-03-22 00:00:00,v3.0,Yes,(CH) Gansu,(CH) Gansu,2014-07-26 00:00:00,1518589,11698
Unknown,1520FA97-E83F-427F-B95A-1C3379E2922D,-62.6621,[],-37.5716,Maurel,Maurel > La Gruta,ARGENTINA,2014-07-27 00:00:00,v3.0,No,(AR) SO - Suarez,(AR) Buenos Aires,2014-12-12 00:00:00,6634614,12303
Good,154E8B53-ED5A-41C6-9F92-2EFBA692CC5B,-100.709,[],48.9769,Gene Siercks,Gene Siercks > 2014 Field,UNITED STATES,2014-05-15 00:00:00,v3.0,No,(US) NE Midwest,(US) North Dakota,2014-08-28 00:00:00,748541,4668
Unknown,155EA975-9F3E-44E1-B0B0-7EA38446E76B,121.927,"['clay (light)', 'clay(heavy)']",48.761,IM-23>Guohuao Zhai,IM-23>Guohuao Zhai > IM-23,CHINA,2014-05-19 00:00:00,v3.0,No,(CN) Hailaer,(CN) Inner Mongolia,2014-09-07 00:00:00,766451,11119
Unknown,157A05BF-FE2E-41FE-9BA8-6E24FF20A2A3,-61.5094,[],-38.8544,Don Pibe SRL,Don Pibe SRL > La Soberana,ARGENTINA,2014-06-28 00:00:00,v3.0,No,(AR) S - Copetona,(AR) Buenos Aires,2014-12-17 00:00:00,6723730,12303
Unknown,159ABFC7-4515-44EB-8972-412C49695FA5,-98.8251,[],48.1223,Brad Larson,Brad Larson > 2014 Section 34,UNITED STATES,2014-05-26 00:00:00,v3.0,No,(US) NE Midwest,(US) North Dakota,2014-09-05 00:00:00,807967,4668
Unknown,159E8458-59EC-4E84-860B-83F801BEE019,-98.2571,"['clay (light)', 'clay(heavy)']",48.0359,Scott Nelson,Scott Nelson > 2014 Sec 20,UNITED STATES,2014-05-21 00:00:00,v3.0,No,(US) NE Midwest,(US) North Dakota,2014-08-20 00:00:00,812925,4668
Bad,15B66892-9B66-4C8D-B36E-0B9D46C07881,-51.813,"['clay (light)', 'clay(heavy)']",-27.9708,João Maximino Baroni,João Maximino Baroni > Linha Baroni,BRAZIL,2014-07-05 00:00:00,v3.0,No,(BR) Norte,(BR) Rio Grande do Sul,2014-11-06 00:00:00,5981363,12864
Bad,15D0337D-F5F8-467E-9973-F40A41D3E1F5,-57.5753,['silty clay'],-32.1724,"CHINAZZO, FABRICIO","CHINAZZO, FABRICIO > TOTO MEDINA",URUGUAY,2014-06-25 00:00:00,v3.0,No,(UY) Norte,(UY) Paysandu,2014-11-19 00:00:00,6268384,27597
Good,15E96CDA-155D-493D-9B86-95FC34A19958,-59.2511,[],-37.4095,Compañía Agricola Ganadera San Benito,Compañía Agricola Ganadera San Benito > San Jose I,ARGENTINA,2014-06-30 00:00:00,v3.0,No,(AR) SE - Tandil,(AR) Buenos Aires,2014-12-19 00:00:00,6624761,12298
Bad,160D3CC7-AFF1-4F1E-9ECF-82B2AF416451,73.0283,[],54.6011,Poisk,Poisk > Poisk-1,RUSSIAN FEDERATION,2014-06-05 00:00:00,v3.0,No,(RU) West Siberia,(RU) Omsk,2014-09-18 00:00:00,369779,8363
Unknown,1640C374-2155-40BF-AF9E-8E625B7CA106,44.1841,[],52.9452,Pustynsky,Pustynsky > Explorer_324ha,RUSSIAN FEDERATION,2014-04-23 00:00:00,v3.0,No,(RU) Volgo-Vyatskiy,(RU) Penza,2014-08-18 00:00:00,478283,7576
Bad,164DDC08-9A91-4F1E-97D9-DED7347ECACD,72.4779,[],54.5917,Luft,Luft > Luft - 28,RUSSIAN FEDERATION,2014-06-03 00:00:00,v3.0,No,(RU) West Siberia,(RU) Omsk,2014-09-17 00:00:00,369772,7545
Bad,16906BDE-0478-4B4B-B740-0E53EF361EE6,-57.5505,"['clay (light)', 'clay(heavy)']",-34.0229,Tourn Néstor,Tourn Néstor > 2,URUGUAY,2014-07-30 00:00:00,v3.0,No,(UY) Sur,(UY) Colonia,2014-12-15 00:00:00,6397085,27602
Unknown,16978963-C84E-48FD-89A5-F23207341F2F,-112.663,"['clay (light)', 'clay(heavy)']",44.0442,Birch Creek Ranches,Birch Creek Ranches > S1,UNITED STATES,2014-04-10 00:00:00,v3.0,Yes,(US) Eastern Idaho,(US) Idaho,2014-09-01 00:00:00,1084977,5049
Bad,16E19CC6-F430-44E8-8D00-EF668A068FFD,44.8834,"['clay (light)', 'clay(heavy)']",54.3464,"Konopatskoe, LLC","Konopatskoe, LLC > Beatrix_132ha",RUSSIAN FEDERATION,2014-04-14 00:00:00,v3.0,No,(RU) Volgo-Vyatskiy,(RU) Mordovia,2014-08-14 00:00:00,384242,8450
Unknown,1739DB50-BE0E-4D6E-8955-1EE9CAF62294,-62.5739,['sandy clay'],-37.3898,Juan Alberto Platz,Juan Alberto Platz > El Abuelo,ARGENTINA,2014-06-18 00:00:00,v3.0,Yes,(AR) O - Rivera,(AR) Buenos Aires,2014-12-14 00:00:00,6624715,12302
Unknown,1743D750-1E74-4461-BF45-8415238BC7B7,-111.76,[],43.775,Webster Mile High Farm Inc,Webster Mile High Farm Inc > Field #3,UNITED STATES,2014-04-09 00:00:00,v3.0,Yes,(US) Eastern Idaho,(US) Idaho,2014-08-11 00:00:00,1099839,5045
Unknown,176E2C48-482B-4019-9B3D-447A29EF54B5,-61.948,[],-37.3963,Mario Mailland,Mario Mailland > Mailland Mario,ARGENTINA,2014-08-02 00:00:00,v3.0,No,(AR) SO - Suarez,(AR) Buenos Aires,2014-12-20 00:00:00,6624724,12301
Bad,17AC5A89-19BF-4946-B968-00DE84510D73,-52.5046,"['clay (light)', 'clay(heavy)']",-28.0745,João Ilair de Souza,João Ilair de Souza > Faz. Souza,BRAZIL,2014-06-07 00:00:00,v3.0,No,(BR) Planalto,(BR) Rio Grande do Sul,2014-11-10 00:00:00,5991254,12600
Unknown,17C49CA7-5B8B-4F35-A833-939CF7DCCB53,-108.178,['silty clay'],49.9822,Randy Taylor,Randy Taylor > Home Field,CANADA,2014-05-05 00:00:00,v3.0,No,(CA) Central Saskatchewan,(CA) Saskatchewan,2014-09-09 00:00:00,679139,4819
Unknown,17FC904B-4D0C-4013-BA7A-F8C4670EAD59,-61.0005,['sandy clay'],-38.7183,Agrícola El Perdido,Agrícola El Perdido > El Perdido,ARGENTINA,2014-06-08 00:00:00,v3.0,No,(AR) S - Copetona,(AR) Buenos Aires,2014-12-04 00:00:00,6713837,12303
Unknown,1813D3E2-E65B-435D-A030-F88B7EED4624,-98.8238,['silty clay'],48.898,MARK LARSON,MARK LARSON > 2014 Section 32,UNITED STATES,2014-05-14 00:00:00,v3.0,No,(US) NE Midwest,(US) North Dakota,2014-08-16 00:00:00,753517,4682
Unknown,181B3679-61E5-4F03-A0F1-A1A05D962083,-60.6714,['sandy clay'],-38.6141,Diego Hollender,Diego Hollender > DH (Andreia Industria),ARGENTINA,2014-06-30 00:00:00,v3.0,No,(AR) S - Copetona,(AR) Buenos Aires,2014-12-01 00:00:00,6708892,12302
Unknown,1821964D-4613-4EA2-9266-BE8AB91786BE,36.0215,"['clay (light)', 'clay(heavy)']",50.5703,ИП Глава КФХ Бабанин В. Е.,ИП Глава КФХ Бабанин В. Е. > 28 га,RUSSIAN FEDERATION,2014-03-21 00:00:00,v3.0,No,(RU) Central,(RU) Belgorod,2014-07-24 00:00:00,641521,8431
Bad,18449515-4748-45D5-8706-29594D683EAE,-58.123999999999995,"['clay (light)', 'clay(heavy)']",-33.5345,Javier Martínez,Javier Martínez > Javier Martínez> Agraciada,URUGUAY,2014-08-01 00:00:00,v3.0,No,(UY) Sur,(UY) Colonia,,6362427,27598
Unknown,18986422-82B2-49DE-AE66-843BB9149FC1,-59.6834,[],-38.3562,TRES AGROINVERSIONES,TRES AGROINVERSIONES > El Rincon,ARGENTINA,2014-07-28 00:00:00,v3.0,No,(AR) SE - Necochea,(AR) Buenos Aires,2014-12-28 00:00:00,6689105,12302
Unknown,18A25F7B-42BE-4BB6-AFC0-D32D261C5D9E,-112.061,[],43.423,Oler Brothers,Oler Brothers > Olers-2014,UNITED STATES,2014-04-07 00:00:00,v3.0,Yes,(US) Eastern Idaho,(US) Idaho,2014-08-10 00:00:00,1124585,5045
Unknown,18AA268B-5463-45AF-8E70-4294ECEFE01D,-59.9769,['silty clay'],-38.653,GROENENBERG MARIANA,GROENENBERG MARIANA > MARIANA,ARGENTINA,2014-06-29 00:00:00,v3.0,No,(AR) S - Carretero,(AR) Buenos Aires,2014-12-27 00:00:00,6708901,12302
Unknown,18B6D663-44CD-497C-B985-9DC56E473B93,-111.789,[],47.6537,Ken Hager,Ken Hager > Field 1,UNITED STATES,2014-05-10 00:00:00,v3.0,Yes,(US) Fairfield,(US) Montana,2014-09-05 00:00:00,837489,4814
Bad,1901EEC2-A932-4584-877B-40DCB7FAE3D4,-57.5414,"['clay (light)', 'clay(heavy)']",-32.2412,Ferrari Horacio,Ferrari Horacio > Ruta 90,URUGUAY,2014-06-20 00:00:00,v3.0,No,(UY) Norte,(UY) Paysandu,2014-12-05 00:00:00,6273335,27597
Unknown,1918A4E8-B3FB-47F7-A3E8-84C45C32CFBC,-60.3173,[],-38.2293,URDAMPILLETA JUAN CARLOS,URDAMPILLETA JUAN CARLOS > KUHN,ARGENTINA,2014-07-25 00:00:00,v3.0,No,(AR) S - Copetona,(AR) Buenos Aires,2014-12-27 00:00:00,6679196,12302
Bad,191C6084-A81C-48FD-A843-4A4E6D297857,-51.4567,"['clay (light)', 'clay(heavy)']",-27.7189,Edimo Pereira Nunes,Edimo Pereira Nunes > Campo 01,BRAZIL,2014-07-03 00:00:00,v3.0,No,(BR) Norte,(BR) Rio Grande do Sul,2014-11-06 00:00:00,5966518,12864
Good,191E042D-E728-453B-A331-2DFAA84E1EA4,-112.118,[],43.5152,DEREK REED,DEREK REED > 2014 Johnsons,UNITED STATES,2014-05-10 00:00:00,v3.0,Yes,(US) Eastern Idaho,(US) Idaho,2014-08-30 00:00:00,1119635,5045
Unknown,19512111-5147-43C7-9F26-21E8BA85EED6,101.845,"['clay (light)', 'clay(heavy)']",38.269,Zefu Yang,Zefu Yang > Zefu Yang,CHINA,2014-03-25 00:00:00,v3.0,Yes,(CH) Gansu,(CH) Gansu,2014-08-10 00:00:00,1478975,11698
Unknown,195951D8-F1E7-45E5-9A7A-F6A80802CF8C,-104.10700000000001,['silty clay'],47.7859,Kenny Iversen,Kenny Iversen > Dad's 48,UNITED STATES,2014-04-15 00:00:00,v3.0,Yes,(US) Mondak,(US) Montana,2014-08-10 00:00:00,827695,4814
Bad,19A7DC78-C03B-4741-9459-1A8BBA42AE7F,-52.202,"['clay (light)', 'clay(heavy)']",-27.5438,Genor Vechiatto,Genor Vechiatto > Campo 01,BRAZIL,2014-06-07 00:00:00,v3.0,No,(BR) Norte,(BR) Rio Grande do Sul,2014-10-31 00:00:00,5951658,12864
Bad,1A17BCCF-6A3C-4803-A1FF-1327E659222D,-52.8153,"['clay (light)', 'clay(heavy)']",-27.7454,Eny Fiorentin,Eny Fiorentin > Campo 01,BRAZIL,2014-06-07 00:00:00,v3.0,No,(BR) Planalto,(BR) Rio Grande do Sul,2014-10-28 00:00:00,5966500,12864
Unknown,1A3CAB13-1CE3-4E8C-9E1F-EAEA449A625D,120.09100000000001,"['clay (light)', 'clay(heavy)']",33.963,Chengfu Jia,Chengfu Jia > Chengfu Jia,CHINA,2013-10-21 00:00:00,v3.0,Yes,(CN) Yancheng,(CN) Jiangsu,2014-05-20 00:00:00,1771276,11681
Unknown,1A3E2C3E-E2E3-4DAB-98FB-0ADA05A4D753,-101.679,"['clay (light)', 'clay(heavy)']",49.6286,Sutter Farms Ltd,Sutter Farms Ltd > Home Field,CANADA,2014-05-16 00:00:00,v3.0,No,(CA) Central Saskatchewan,(CA) Saskatchewan,2014-08-28 00:00:00,703978,4678
Bad,1A5B0F82-5115-43BD-97B8-643BF605995F,-57.8354,[],-31.8275,"Cabrera, Richard","Cabrera, Richard > Sta. Kylda",URUGUAY,2014-06-20 00:00:00,v3.0,No,(UY) Norte,(UY) Paysandu,2014-11-20 00:00:00,6243631,27597
Good,1A702B0F-CA2E-4671-B9AA-90AD45037D2B,-58.8869,[],-38.3009,RELEN,RELEN > Relen,ARGENTINA,2014-08-01 00:00:00,v3.0,No,(AR) SE - Necochea,(AR) Buenos Aires,2014-12-18 00:00:00,6684166,12302
Bad,1AD65B19-D9CD-49EC-B55B-77B490ACFE1E,-52.7347,"['clay (light)', 'clay(heavy)']",-27.8383,Fernandes Caus,Fernandes Caus > Campo 01,BRAZIL,2014-06-08 00:00:00,v3.0,No,(BR) Planalto,(BR) Rio Grande do Sul,2014-10-30 00:00:00,5976401,12864
Bad,1B2ECED0-9435-4532-9CDE-1FD2CAABF68A,-58.1642,[],-33.1128,Eduardo Dimitriof,Eduardo Dimitriof > Casa,URUGUAY,2014-06-10 00:00:00,v3.0,No,(UY) Norte,(UY) Rio Negro,2014-11-29 00:00:00,6332726,27598
Unknown,1B4D075A-6E14-4340-A154-95A0098E8553,-112.022,[],43.5943,Taylor Smith,Taylor Smith > 72 Acre,UNITED STATES,2013-04-10 00:00:00,v3.0,Yes,(US) Eastern Idaho,(US) Idaho,2013-08-15 00:00:00,1114686,5045
Bad,1B823E7E-6BB7-4880-8F58-6E48C5793373,-111.412,['sandy clay'],48.4714,EAGLE CREEK COLONY,EAGLE CREEK COLONY > 145 ac sec 27 field 1,UNITED STATES,2014-04-26 00:00:00,v3.0,No,(US) Conrad,(US) Montana,2014-08-16 00:00:00,783044,4830
Bad,1B963C52-D884-4A38-BD33-C721E76E6C5A,-57.9571,['sandy clay'],-33.9918,Sergio Jorajuria,Sergio Jorajuria > Campana,URUGUAY,2014-06-22 00:00:00,v3.0,No,(UY) Sur,(UY) Colonia,2014-11-28 00:00:00,6392129,27598
Unknown,1BA87445-ABF6-4202-BC4A-23087838DEE8,100.88799999999999,['sandy clay'],38.515,Zhong Zhang,Zhong Zhang > Zhong Zhang,CHINA,2014-04-08 00:00:00,v3.0,Yes,(CH) Gansu,(CH) Gansu,2014-08-09 00:00:00,1464112,11698
Unknown,1C0890FD-70C8-45DA-A0E6-7B793FD2F665,-60.2955,[],-38.1852,LEANDRO ADRIAN LARSEN,LEANDRO ADRIAN LARSEN > EL ENTREVERO,ARGENTINA,2014-06-26 00:00:00,v3.0,No,(AR) S - Copetona,(AR) Buenos Aires,2014-12-28 00:00:00,6679197,12302
Unknown,1C1FADC0-9B62-4363-9201-268687EFDFE7,-103.294,[],51.845,Oscar Johnson,Oscar Johnson > 2014 home field,CANADA,2014-05-20 00:00:00,v3.0,No,(CA) Central Saskatchewan,(CA) Saskatchewan,2014-09-14 00:00:00,555456,4681
Bad,1C24E425-5B9B-4D1B-945F-9287B0C9C028,-112.08,[],43.65,Robison Inc,Robison Inc > Snake River,UNITED STATES,2014-04-04 00:00:00,v3.0,Yes,(US) Eastern Idaho,(US) Idaho,2014-09-10 00:00:00,1109735,5045
Bad,1C2E45C4-2183-474E-B35C-A0F2E7D6CCA2,-53.4414,"['clay (light)', 'clay(heavy)']",-29.5008,Osvaldir Gonçalves Nunes,Osvaldir Gonçalves Nunes > Val da Serra,BRAZIL,2014-06-20 00:00:00,v3.0,No,(BR) Centro,(BR) Rio Grande do Sul,2014-11-15 00:00:00,6085291,12820
Bad,1C9286FF-D7D5-4AA7-8EB6-54ADCC3ECFB6,-57.4409,"['clay (light)', 'clay(heavy)']",-31.9096,"Wagner, Irimey","Wagner, Irimey > Baical Casco",URUGUAY,2014-07-05 00:00:00,v3.0,No,(UY) Norte,(UY) Paysandu,2014-12-09 00:00:00,6248586,27600
Unknown,1CBA56C4-B3AA-4315-98EE-0F0E4CB5AE48,121.059,"['clay (light)', 'clay(heavy)']",49.11,IM-30>Mingxuan Bai,IM-30>Mingxuan Bai > IM-30,CHINA,2014-05-19 00:00:00,v3.0,No,(CN) Hailaer,(CN) Inner Mongolia,2014-09-08 00:00:00,741689,11119
Unknown,1CEA9137-C8A7-4A12-9749-57449B4D2F8A,-112.561,[],43.896,Stoddart Farms,Stoddart Farms > Chucks,UNITED STATES,2014-03-30 00:00:00,v3.0,Yes,(US) Eastern Idaho,(US) Idaho,2014-08-15 00:00:00,1094878,5049
Bad,1D01E8F2-2263-424E-BBA4-A79E7C91EF60,-52.0956,"['clay (light)', 'clay(heavy)']",-28.1319,Breno A. Brazaga,Breno A. Brazaga > Faz. Brasaga,BRAZIL,2014-06-20 00:00:00,v3.0,No,(BR) Norte,(BR) Rio Grande do Sul,2014-11-03 00:00:00,5996209,12864
Unknown,1D2248E7-6194-48B6-8DEB-7CFD1D04DF0A,-112.344,['sandy clay'],48.0706,"SPRINGHILL CATTLE, INC","SPRINGHILL CATTLE, INC > 210 AC HORSESHOE",UNITED STATES,2014-04-10 00:00:00,v3.0,No,(US) Conrad,(US) Montana,2014-08-12 00:00:00,807781,4814
Bad,1D258E70-BA6B-4141-BB2B-FF47F479EDCD,-52.88,"['clay (light)', 'clay(heavy)']",-28.6112,Eloy Bervian,Eloy Bervian > Bervian,BRAZIL,2014-05-30 00:00:00,v3.0,No,(BR) Planalto,(BR) Rio Grande do Sul,2014-10-22 00:00:00,6025899,12864
Bad,1D7332A7-F206-4AE4-89AF-7D8C40685B7E,-111.225,[],43.864,Dennie Arnold Farms,Dennie Arnold Farms > S1,UNITED STATES,2014-04-26 00:00:00,v3.0,Yes,(US) Eastern Idaho,(US) Idaho,2014-09-02 00:00:00,1094897,4782
Bad,1DE7FB41-6D1D-4AFB-8D55-A66CA82E9589,-62.9759,[],-37.8074,Dumondin,Dumondin > Las Lomitas,ARGENTINA,2014-08-15 00:00:00,v3.0,No,(AR) SO - Puan,(AR) Buenos Aires,2014-12-09 00:00:00,6654410,12303
Unknown,1E5FAFE2-3ED4-4A42-94C1-676DB526B593,-62.5794,[],-37.5433,Moulin,Moulin > Don Antonio,ARGENTINA,2014-06-20 00:00:00,v3.0,No,(AR) SO - Puan,(AR) Buenos Aires,2014-12-15 00:00:00,6634615,12303
Bad,1E630BD9-2BBE-4848-8B40-B7E56001DC76,-57.4873,[],-32.6019,IÑIGO DE PALACIO,IÑIGO DE PALACIO > AYPÈ (Mangas),URUGUAY,2014-06-23 00:00:00,v3.0,No,(UY) Norte,(UY) Rio Negro,2014-12-07 00:00:00,6298085,27598
Good,1E999756-27EE-4FDB-B382-FDA504A82A97,-59.2066,[],-37.3443,Heriberto Cuervo,Heriberto Cuervo > San J. III,ARGENTINA,2014-07-17 00:00:00,v3.0,No,(AR) SE - Tandil,(AR) Buenos Aires,2014-12-15 00:00:00,6619812,12298
Unknown,1EB47882-2576-4667-AAC6-BE46DC4932CE,-58.6791,[],-37.9264,PEDRO QUINTEIRO,PEDRO QUINTEIRO > Lauanmape,ARGENTINA,2014-06-28 00:00:00,v3.0,No,(AR) SE - Necochea,(AR) Buenos Aires,2014-12-19 00:00:00,6659419,12302
Bad,1EC0051C-B98B-455F-8889-251830DBCE40,-52.9785,"['clay (light)', 'clay(heavy)']",-28.714000000000002,Pedro Matias Kuhn,Pedro Matias Kuhn > Pedro Kuhn,BRAZIL,2014-06-03 00:00:00,v3.0,No,(BR) Planalto,(BR) Rio Grande do Sul,2014-10-22 00:00:00,6035797,12864
Unknown,1EDF056C-713A-40CE-95C1-21E3E811D7E6,-62.2347,[],-37.5819,Diego Marcenac,Diego Marcenac > La Colonia,ARGENTINA,2014-08-10 00:00:00,v3.0,No,(AR) SO - Puan,(AR) Buenos Aires,2014-12-20 00:00:00,6634620,12302
Bad,1F33FD76-CEF2-44ED-86A7-DFFA37642364,45.6381,[],54.71,Elecom,Elecom > Explorer_200ha,RUSSIAN FEDERATION,2014-04-24 00:00:00,v3.0,No,(RU) Volgo-Vyatskiy,(RU) Mordovia,2014-08-07 00:00:00,359503,8499
Bad,1F56BEFF-A195-4088-81C1-AED5E8C92506,-102.475,[],47.9157,Steven Pennington,Steven Pennington > Steve's Field,UNITED STATES,2014-05-14 00:00:00,v3.0,No,(US) Mondak,(US) North Dakota,2014-08-20 00:00:00,822767,4814
Good,1F58A1C0-3CC4-41F9-90EB-FE03BFD726B2,-113.021,[],49.4727,Danny Degenstein,Danny Degenstein > Sweetgrass,CANADA,2014-03-03 00:00:00,v3.0,No,(CA) Lethbridge,(CA) Alberta,2014-05-09 00:00:00,713722,4814
Unknown,1F83676C-40FF-4492-9FB7-0C0E4D30A61B,-103.78,['silty clay'],48.077,Roger Bearce,Roger Bearce > Sec. 30,UNITED STATES,2014-04-25 00:00:00,v3.0,Yes,(US) Mondak,(US) North Dakota,2014-08-10 00:00:00,807899,4991
Unknown,1FD98A58-EF43-441B-B377-3A6405E16CC7,34.3758,"['clay (light)', 'clay(heavy)']",51.3357,"ООО ""Возрождение""","ООО ""Возрождение"" > 170 га",RUSSIAN FEDERATION,2014-04-18 00:00:00,v3.0,No,(RU) Central,(RU) Kursk,2014-08-14 00:00:00,591998,8499
Bad,1FFBA9A1-1A59-4910-93FD-7E23C2C0F743,-52.43600000000001,"['clay (light)', 'clay(heavy)']",-27.7603,Armenio Casagrande,Armenio Casagrande > Campo 01,BRAZIL,2014-06-12 00:00:00,v3.0,No,(BR) Norte,(BR) Rio Grande do Sul,2014-11-28 00:00:00,5966505,12864
Unknown,20152FAF-002B-463C-BC4E-A0748D05A874,-50.2943,"['clay (light)', 'clay(heavy)']",-25.0142,João schmidt,João schmidt > Fz schmidt,BRAZIL,2014-06-20 00:00:00,v3.0,No,(BR) Paraná,(BR) Parana,2014-10-25 00:00:00,5783384,12700
Unknown,2038B1F1-770B-4622-A6F2-2DD7DDFAD8FA,-112.118,[],43.479,Sedar Beckman,Sedar Beckman > New Sweden Pivot,UNITED STATES,2014-04-10 00:00:00,v3.0,Yes,(US) Eastern Idaho,(US) Idaho,2014-08-05 00:00:00,1124585,5045
Bad,203A193C-7005-46A8-B8E2-53E76BE9E1FA,-53.1601,"['clay (light)', 'clay(heavy)']",-28.3849,Catia Camera,Catia Camera > Cotriba IB60,BRAZIL,2014-06-12 00:00:00,v3.0,No,(BR) Planalto,(BR) Rio Grande do Sul,2014-10-24 00:00:00,6011045,12864
Unknown,204C78EE-7C13-4B9F-BC52-C395A2CEE2CC,35.5357,"['clay (light)', 'clay(heavy)']",51.28,"ООО ""Спасская Нива""","ООО ""Спасская Нива"" > 70 га",RUSSIAN FEDERATION,2014-04-04 00:00:00,v3.0,No,(RU) Central,(RU) Kursk,2014-08-12 00:00:00,592014,7567
Bad,208B282F-8C7E-46DC-91B6-4673FD35489F,-111.816,[],47.653,Raymond Scott,Raymond Scott > Field 1,UNITED STATES,2014-04-05 00:00:00,v3.0,Yes,(US) Fairfield,(US) Montana,2014-08-12 00:00:00,837489,4814
Bad,2099EDDC-D428-44B7-A394-F5463988F790,-110.948,[],48.0736,WILL SNODGRASS,WILL SNODGRASS > 30 AC WILL,UNITED STATES,2014-05-08 00:00:00,v3.0,No,(US) Conrad,(US) Montana,2014-09-10 00:00:00,807801,4814
Unknown,20A13B4D-7E67-4D77-A1D7-47BC4019C1C2,-112.198,[],43.5725,Westwind,Westwind > Bonneview 3,UNITED STATES,2013-04-08 00:00:00,v3.0,Yes,(US) Eastern Idaho,(US) Idaho,2013-08-10 00:00:00,1114683,5049
Unknown,20AE0568-CBF6-4DFA-9B3D-F25B6E46B4DE,-62.4957,['sandy clay'],-37.5671,Felix Bdacarrox,Felix Bdacarrox > Puan,ARGENTINA,2014-08-08 00:00:00,v3.0,No,(AR) O - Rivera,(AR) Buenos Aires,2014-12-26 00:00:00,6634617,12302
Unknown,20B17E83-1F56-44B7-8C04-55B2B3EC2D62,-99.8115,['sandy clay'],46.5443,Shawn Moch,Shawn Moch > 2014 Sec 32,UNITED STATES,2014-05-15 00:00:00,v3.0,No,(US) SW Midwest,(US) North Dakota,2014-08-12 00:00:00,911904,4667
Unknown,20CA2DA3-4FDC-48CB-AED2-85DC122F0A11,-104.02,[],47.8668,Hardy Ag,Hardy Ag > Homeplace,UNITED STATES,2014-04-07 00:00:00,v3.0,Yes,(US) Mondak,(US) Montana,2014-08-15 00:00:00,822746,4814
Bad,20CE3B70-0F82-4259-B140-81FAFE102CA6,-58.1731,['sandy clay'],-33.6516,Andres Berduc,Andres Berduc > Matrero bb,URUGUAY,2014-07-10 00:00:00,v3.0,No,(UY) Sur,(UY) Colonia,2014-12-04 00:00:00,6367376,27598
Unknown,20CFB2DE-F0F6-41AB-AAFA-610E2E9FED13,102.03,['sandy clay'],38.434,Yufei Zhang,Yufei Zhang > Yufei Zhang,CHINA,2014-04-10 00:00:00,v3.0,Yes,(CH) Gansu,(CH) Gansu,2014-08-10 00:00:00,1469078,11287
Unknown,20D70DEC-6209-4615-A409-FD4018762944,-60.7109,[],-38.5613,MAURICIO MUSSI,MAURICIO MUSSI > CAS,ARGENTINA,2014-08-08 00:00:00,v3.0,No,(AR) S - Copetona,(AR) Buenos Aires,2014-12-29 00:00:00,6703941,12303
Unknown,212060BE-1863-4759-A901-C3B803723628,120.094,['sandy clay'],33.959,Xuebao Yang,Xuebao Yang > Xuebao Yang,CHINA,2013-10-25 00:00:00,v3.0,Yes,(CN) Yancheng,(CN) Jiangsu,2014-05-18 00:00:00,1771276,11681
Good,212556EC-230E-4433-8161-18056FC7A597,-114.897,[],42.6941,M & R Farms,M & R Farms > 85 13 E Sec 27,UNITED STATES,2013-10-01 00:00:00,v3.0,Yes,(US) Southern Idaho,(US) Idaho,2014-07-15 00:00:00,1174046,5049
Unknown,2134005C-5C73-4D0A-8658-9F718191815B,121.51299999999999,['silty clay'],49.327,IM50>Wenlong Zhou,IM50>Wenlong Zhou > IM50,CHINA,2014-05-26 00:00:00,v3.0,No,(CN) Hailaer,(CN) Inner Mongolia,2014-09-11 00:00:00,726846,11119
Bad,213BEC31-C8E1-4B8C-B2AB-B47CF2AA8627,-52.5121,"['clay (light)', 'clay(heavy)']",-28.2709,Hélio Walker,Hélio Walker > Faz. Walker,BRAZIL,2014-06-08 00:00:00,v3.0,No,(BR) Planalto,(BR) Rio Grande do Sul,2014-10-23 00:00:00,6001154,12600
Bad,21602AD8-9972-4252-A0CE-72EA755B6450,-63.0733,[],-37.5471,Martinez,Martinez > La Sulema,ARGENTINA,2014-07-24 00:00:00,v3.0,No,(AR) SO - Puan,(AR) Buenos Aires,2014-12-14 00:00:00,6634609,12303
Unknown,21887422-D39B-4DA8-85AE-5D0C89339E50,-51.4583,"['clay (light)', 'clay(heavy)']",-27.7171,Renato Carlos de Souza,Renato Carlos de Souza > Br 470,BRAZIL,2014-07-05 00:00:00,v3.0,No,(BR) Norte,(BR) Rio Grande do Sul,2014-11-04 00:00:00,5966518,12864
Unknown,21BF23D5-A8EB-4B9D-88A7-3E94072CD741,-100.64299999999999,[],48.8209,Raymond Boll,Raymond Boll > 2014 Field,UNITED STATES,2014-05-20 00:00:00,v3.0,No,(US) NE Midwest,(US) North Dakota,2014-08-20 00:00:00,758442,4668
Bad,21C0666D-1FDE-4B84-9DCA-685AD6F1F5D5,-58.0611,[],-32.4144,Joselo Porro,Joselo Porro > Casa,URUGUAY,2014-06-23 00:00:00,v3.0,No,(UY) Norte,(UY) Paysandu,2014-11-18 00:00:00,6283227,27598
Unknown,21EA0F03-D494-4713-BF66-1F07D0A212E7,-111.902,[],47.6606,Chase Brady,Chase Brady > Chase Brady_2013 Review,UNITED STATES,2014-04-28 00:00:00,v3.0,Yes,(US) Fairfield,(US) Montana,2014-08-21 00:00:00,837487,4814
Good,2236959C-3B49-4751-808E-B18391AEFB25,96.758,['sandy clay'],39.861999999999995,Jiming Zhang,Jiming Zhang > Jiming Zhang,CHINA,2014-04-01 00:00:00,v3.0,Yes,(CH) Gansu,(CH) Gansu,2014-08-25 00:00:00,1370005,11697
Good,2237CA55-2804-4819-B513-6BAA09C9E528,-58.6925,[],-37.9585,BARON Y CIA S.A.,BARON Y CIA S.A. > El Pampero,ARGENTINA,2014-07-20 00:00:00,v3.0,No,(AR) SE - Necochea,(AR) Buenos Aires,2014-12-18 00:00:00,6664369,12302
Good,2240AE84-3E1F-4732-A155-DAF130132410,-100.04799999999999,[],48.6974,Steve Grenier,Steve Grenier > 2014 Sec 11,UNITED STATES,2014-05-15 00:00:00,v3.0,No,(US) NE Midwest,(US) North Dakota,2014-09-02 00:00:00,768350,4668
Unknown,2248FD16-D366-4A43-96C6-227B2947DB04,-60.5986,[],-35.0383,Felipe Muriel,Felipe Muriel > Muriel,ARGENTINA,2014-06-19 00:00:00,v3.0,No,(AR) CN - Bragado,(AR) Buenos Aires,2014-12-06 00:00:00,6461393,12293
Bad,2267F982-A601-4F68-858C-185931A914AE,-57.5748,"['clay (light)', 'clay(heavy)']",-32.225,Abel Odella,Abel Odella > Amanda Mabel Branca,URUGUAY,2014-07-07 00:00:00,v3.0,No,(UY) Norte,(UY) Paysandu,2014-11-15 00:00:00,6273334,27597
Unknown,2268090D-7147-4AB9-9D64-1C83495C8DEC,121.316,['silty clay'],48.321999999999996,IM58>Hagen,IM58>Hagen > IM58,CHINA,2014-05-29 00:00:00,v3.0,No,(CN) Hailaer,(CN) Inner Mongolia,2014-09-02 00:00:00,796143,11000
Unknown,2299989B-224B-486A-B595-C9C37D0E7F38,-51.0152,"['clay (light)', 'clay(heavy)']",-28.0917,Gilmar Scariot,Gilmar Scariot > Faz. Esmeralda,BRAZIL,2014-07-14 00:00:00,v3.0,No,(BR) Norte,(BR) Rio Grande do Sul,2014-11-18 00:00:00,5991274,12644
Bad,22DD409D-EB17-47B3-ADE1-F969DF6753B2,-57.3921,[],-34.1123,Frip y Engelhart,Frip y Engelhart > Sin nombre,URUGUAY,2014-06-21 00:00:00,v3.0,No,(UY) Sur,(UY) Colonia,2014-11-27 00:00:00,6402037,27601
Unknown,22E9A171-BC71-41D0-9CFA-A669D035AB77,-61.2596,[],-34.1655,Alvarado,Alvarado > Alvarado 1,ARGENTINA,2014-06-25 00:00:00,v3.0,No,(AR) CN - Bragado,(AR) Buenos Aires,2014-12-12 00:00:00,6401984,12290
Bad,2402ACAA-691B-4E1B-A4F9-214AFCB36F90,-53.0837,"['clay (light)', 'clay(heavy)']",-29.101999999999997,Alexandre Castilhos,Alexandre Castilhos > SC Cereais 21,BRAZIL,2014-06-02 00:00:00,v3.0,No,(BR) Centro,(BR) Rio Grande do Sul,2014-10-24 00:00:00,6060546,12864
Unknown,240B6A32-5329-495E-97B4-38FB10ED14F9,100.73299999999999,"['clay (light)', 'clay(heavy)']",38.653,Kaiyu Shang,Kaiyu Shang > Kaiyu Shang,CHINA,2014-04-01 00:00:00,v3.0,Yes,(CH) Gansu,(CH) Gansu,2014-08-09 00:00:00,1454210,11697
Unknown,244920BD-0F57-4628-9859-D7E6D1CE3A52,-112.10799999999999,[],43.5644,Taylor and Sons,Taylor and Sons > Daw 6,UNITED STATES,2014-04-05 00:00:00,v3.0,Yes,(US) Eastern Idaho,(US) Idaho,2014-08-25 00:00:00,1114685,5045
Bad,245F866C-4E96-4AA8-B78C-7691D80384A8,-57.8149,"['clay (light)', 'clay(heavy)']",-31.9362,Fernando knecht,Fernando knecht > La Pampita,URUGUAY,2014-06-27 00:00:00,v3.0,No,(UY) Norte,(UY) Paysandu,2014-11-11 00:00:00,6253531,27597
Good,24774CB5-4302-4581-AF48-01BA440347F0,-61.1863,[],-37.2867,Acelar,Acelar > San Jose II,ARGENTINA,2014-06-14 00:00:00,v3.0,No,(AR) SO - Suarez,(AR) Buenos Aires,2014-12-13 00:00:00,6614835,12301
Unknown,248E39E9-9120-41B3-9106-AD6FDEE4ECFC,-57.0156,"['clay (light)', 'clay(heavy)']",-34.2242,Laura Ferreira,Laura Ferreira > R53,URUGUAY,2014-07-18 00:00:00,v3.0,No,(UY) Sur,(UY) Colonia,2014-12-15 00:00:00,6406992,27601
Unknown,24CB3639-6056-43D6-9F5B-0DD612CDCC66,-61.3867,[],-38.8869,Musi Mauricio,Musi Mauricio > La Rinconada,ARGENTINA,2014-06-05 00:00:00,v3.0,No,(AR) O - Rivera,(AR) Buenos Aires,2014-11-24 00:00:00,6723732,12310
Unknown,25485063-BC0C-4B64-B1DB-CEDB5C8214AC,-113.38,[],49.9103,Aaron Nauta,Aaron Nauta > 2014- Uncle Roy,CANADA,2014-05-14 00:00:00,v3.0,No,(CA) Lethbridge,(CA) Alberta,2014-09-10 00:00:00,684017,4814
Unknown,256B6830-61C9-4367-870F-5BF989704B39,-111.713,[],43.8729,Bruce Ricks,Bruce Ricks > Sugar City,UNITED STATES,2014-04-18 00:00:00,v3.0,Yes,(US) Eastern Idaho,(US) Idaho,2014-08-15 00:00:00,1094890,5045
Bad,25984235-921F-465C-B645-1277AB0D2B95,-111.875,"['clay (light)', 'clay(heavy)']",48.2623,JOE PEARSON,JOE PEARSON > 235 AC NEXT TO HOUSE,UNITED STATES,2014-04-17 00:00:00,v3.0,Yes,(US) Conrad,(US) Montana,2014-08-25 00:00:00,797888,4814
Bad,25A28CF1-D36A-49DF-AD90-54D074C3059A,-51.3838,"['clay (light)', 'clay(heavy)']",-28.2049,Joel Sgarbossa,Joel Sgarbossa > Campo 01,BRAZIL,2014-07-03 00:00:00,v3.0,No,(BR) Norte,(BR) Rio Grande do Sul,2014-11-11 00:00:00,6001169,12644
Bad,2625B456-B870-499C-882A-07665ADCBCEB,-104.521,[],48.2888,Grant Labatte,Grant Labatte > Sec. 23,UNITED STATES,2014-05-18 00:00:00,v3.0,No,(US) Mondak,(US) Montana,2014-08-06 00:00:00,793039,4814
Bad,26CB567F-0B96-4C13-BF94-68F7CD9EECEE,-52.2205,"['clay (light)', 'clay(heavy)']",-27.5539,Germano Zem,Germano Zem > Gleba Santo Antão,BRAZIL,2014-06-16 00:00:00,v3.0,No,(BR) Norte,(BR) Rio Grande do Sul,2014-11-05 00:00:00,5956608,12864
Bad,26D51965-B46C-4DEA-9521-9A7A0931ED3A,-57.4221,[],-32.2124,Luis Facchin,Luis Facchin > Col. 19 de abril,URUGUAY,2014-07-01 00:00:00,v3.0,No,(UY) Norte,(UY) Paysandu,2014-12-03 00:00:00,6273336,27597
Unknown,26E6ED3E-6591-4025-A646-7B9B17CCD8B0,-111.61399999999999,[],43.8224,Bevan Jeppesen Inc,Bevan Jeppesen Inc > Parkinson,UNITED STATES,2014-04-09 00:00:00,v3.0,Yes,(US) Eastern Idaho,(US) Idaho,2014-08-28 00:00:00,1099841,4782
Bad,2715FD4A-72D7-4FAB-9D7E-9F9C7D9E0576,-57.141000000000005,[],-33.0423,LAS COLONIAS SRL (Urrestarazu-Vila),LAS COLONIAS SRL (Urrestarazu-Vila) > ISLAS - carretera,URUGUAY,2014-07-01 00:00:00,v3.0,No,(UY) Norte,(UY) Rio Negro,2014-12-15 00:00:00,6327790,27605
Unknown,271A8A6F-9C64-4F30-AE3E-E5FD37240F0B,120.49600000000001,['sandy clay'],33.027,Fubing Xia,Fubing Xia > Fubing Xia,CHINA,2013-10-17 00:00:00,v3.0,Yes,(CN) Yancheng,(CN) Gansu,2014-05-25 00:00:00,1835632,11522
Unknown,27307DE5-D340-4BE8-8068-EF843C23DA8A,-60.2084,[],-38.4814,Haraldo Kisbye,Haraldo Kisbye > TsAs Lote 1,ARGENTINA,2014-07-01 00:00:00,v3.0,No,(AR) S - Carretero,(AR) Buenos Aires,2014-12-19 00:00:00,6698998,12302
Bad,27637C08-BC06-4EF9-AE8B-9FD16DC29E46,-57.583999999999996,['sandy clay'],-31.5657,Jose Luis De Benedetti,Jose Luis De Benedetti > J.L De Benedetti,URUGUAY,2014-07-05 00:00:00,v3.0,No,(UY) Norte,(UY) Paysandu,2014-11-09 00:00:00,6228784,27599
Unknown,279E962D-78DA-4AAC-BCC5-0282343929F9,-62.12,[],-35.4816,Degros,Degros > Degros SA,ARGENTINA,2014-07-06 00:00:00,v3.0,No,(AR) CN - Bragado,(AR) Buenos Aires,2014-12-08 00:00:00,6496022,12293
Bad,27D19A42-3AE8-45CA-9E64-700595A7F50A,-62.6425,[],-37.4769,Meiller,Meiller > Don Andres,ARGENTINA,2014-07-29 00:00:00,v3.0,No,(AR) SO - Suarez,(AR) Buenos Aires,2014-12-22 00:00:00,6629665,12303
Unknown,29203889-CC77-42D1-93BD-1FF808321989,-111.881,[],43.628,JUSTIN PRICE,JUSTIN PRICE > 2014 Bottom of Vernals,UNITED STATES,2014-03-21 00:00:00,v3.0,Yes,(US) Eastern Idaho,(US) Idaho,2014-08-11 00:00:00,1109738,5045
Unknown,2991D37A-E8F0-43F4-9942-F245BCC44E81,-61.24,[],-34.1737,Mantegna,Mantegna > el 35,ARGENTINA,2014-07-02 00:00:00,v3.0,No,(AR) CN - Arribeños,(AR) Buenos Aires,2014-11-30 00:00:00,6406934,12290
Good,2A1AD54C-8534-4010-89DB-C9991B213AD5,96.792,['sandy clay'],39.907,Lijun Yan,Lijun Yan > LIjun Yan,CHINA,2014-04-01 00:00:00,v3.0,Yes,(CH) Gansu,(CH) Gansu,2014-08-25 00:00:00,1370006,11697
Bad,2A2C9D10-77FD-4FB2-85E9-8421C590ECEE,-53.4518,"['clay (light)', 'clay(heavy)']",-28.7629,Rosemar  Roesler,Rosemar  Roesler > Cotriba CÁ 112,BRAZIL,2014-05-25 00:00:00,v3.0,No,(BR) Planalto,(BR) Rio Grande do Sul,2014-10-25 00:00:00,6035791,12600
Unknown,2A90A849-E93A-4E24-8A7E-EB0D0893B536,-63.4959,[],-35.5436,Allende Maria Aurelia,Allende Maria Aurelia > 13A,ARGENTINA,2014-06-30 00:00:00,v3.0,No,(AR) S - Copetona,(AR) Buenos Aires,2014-12-06 00:00:00,6496003,12292
Unknown,2A9154ED-267F-4465-9981-9D8B1C1DDB29,-104.775,[],47.4676,Brent Goosen,Brent Goosen > Holsworth,UNITED STATES,2014-05-09 00:00:00,v3.0,No,(US) Mondak,(US) Montana,2014-08-04 00:00:00,852435,4987
Unknown,2AD14A77-487C-462B-9D2B-7208AF8F17FC,-61.5985,[],-37.0357,carlos echeverry,carlos echeverry > quito sanchez,ARGENTINA,2014-07-30 00:00:00,v3.0,No,(AR) S - Copetona,(AR) Buenos Aires,2014-12-28 00:00:00,6599979,12301
Bad,2AD73D17-1143-4098-9974-46D2C56D638A,-57.443000000000005,[],-32.2025,"Rodriguez, Alfr.","Rodriguez, Alfr. > 35",URUGUAY,2014-06-20 00:00:00,v3.0,No,(UY) Norte,(UY) Paysandu,2014-12-05 00:00:00,6273336,27597
Bad,2AE6AFD4-C06D-471E-908C-F08458A9ED8D,-52.1219,"['clay (light)', 'clay(heavy)']",-28.1321,Hermes Caetano da Rosa,Hermes Caetano da Rosa > Faz. Seu Hermes,BRAZIL,2014-06-15 00:00:00,v3.0,No,(BR) Norte,(BR) Rio Grande do Sul,2014-11-01 00:00:00,5996209,12864
Unknown,2AED69D6-4CAE-41CD-A3B6-6C6BE346003F,-98.2666,[],48.5045,Tom Shirek,Tom Shirek > 2014 Section 9,UNITED STATES,2014-05-25 00:00:00,v3.0,No,(US) NE Midwest,(US) North Dakota,2014-09-15 00:00:00,778275,4668
Unknown,2AF30C7E-698D-4161-9277-183A1E59374D,-104.059,['sandy clay'],47.777,Steve Pust,Steve Pust > Sorenson North,UNITED STATES,2014-04-20 00:00:00,v3.0,Yes,(US) Mondak,(US) Montana,2014-08-03 00:00:00,827695,4814
Unknown,2B08226C-1090-4E97-8CF1-F6081B1449EC,-101.234,['sandy clay'],48.7048,Ty Engstrom,Ty Engstrom > 2014 Sec 11,UNITED STATES,2014-06-10 00:00:00,v3.0,No,(US) NE Midwest,(US) North Dakota,2014-09-21 00:00:00,768334,4675
Unknown,2B50838E-23A3-40B0-BC61-49F5701F9D29,-111.985,[],43.5406,Scott Steele,Scott Steele > 25E49N,UNITED STATES,2014-04-05 00:00:00,v3.0,Yes,(US) Eastern Idaho,(US) Idaho,2014-08-15 00:00:00,1119636,5045
Unknown,2BB55C5C-A923-446B-8D4E-F9EC541DDC61,-51.293,"['clay (light)', 'clay(heavy)']",-28.0409,Raul Basso,Raul Basso > Faz. Muitos Capões,BRAZIL,2014-06-20 00:00:00,v3.0,No,(BR) Norte,(BR) Rio Grande do Sul,2014-11-15 00:00:00,5986321,12644
Bad,2BD8C338-07FC-4F6C-89D3-BAD7A4AC03C7,-57.3007,[],-31.4844,M. Gabriela Triaca,M. Gabriela Triaca > La Navidad,URUGUAY,2014-07-03 00:00:00,v3.0,No,(UY) Norte,(UY) Paysandu,2014-11-28 00:00:00,6223838,27599
Unknown,2BF1F6AD-DF69-43E3-AB50-0B4D60E5B8BB,-61.9376,[],-37.0389,Shamber,Shamber > El Triangulo,ARGENTINA,2014-07-20 00:00:00,v3.0,No,(AR) SO - Suarez,(AR) Buenos Aires,2014-12-12 00:00:00,6599974,12301
Bad,2C108CB9-8FB5-4D07-8C49-4948B6B50AC1,-57.1351,['sandy clay'],-34.3603,Shirley Zimer,Shirley Zimer > Km 114,URUGUAY,2014-08-10 00:00:00,v3.0,No,(UY) Sur,(UY) Colonia,2014-12-14 00:00:00,6416890,27603
Bad,2C1BA7C5-4CDB-405F-B08D-38D6F244F771,72.6016,[],54.1527,Gelios,Gelios > Gelios 3-9,RUSSIAN FEDERATION,2014-06-03 00:00:00,v3.0,No,(RU) West Siberia,(RU) Omsk,2014-10-08 00:00:00,399473,7545
Unknown,2C713FE7-6C90-4EED-8AB4-3194CBC5A96E,101.65899999999999,"['clay (light)', 'clay(heavy)']",38.379,Kailong Xu,Kailong Xu > Kailong Xu,CHINA,2014-04-01 00:00:00,v3.0,Yes,(CH) Gansu,(CH) Gansu,2014-08-10 00:00:00,1474023,11698
Unknown,2C8D50BF-5E98-4150-8022-9B43D33F9FAD,-112.20200000000001,['sandy clay'],47.5678,Curtis and Julie Taylor,Curtis and Julie Taylor > Field 1,UNITED STATES,2014-05-10 00:00:00,v3.0,Yes,(US) Fairfield,(US) Montana,2014-08-15 00:00:00,842433,4814
Unknown,2CACE19C-F5D0-4CDB-BFB0-F352C1A7EFF7,-60.4123,[],-35.1581,Daniel Monaco,Daniel Monaco > San Felix,ARGENTINA,2014-06-22 00:00:00,v3.0,No,(AR) CN - Bragado,(AR) Buenos Aires,2014-12-11 00:00:00,6471295,12293
Bad,2CB84FBD-8423-4FEB-9A95-A9FDFFFF3D8A,-53.5212,"['clay (light)', 'clay(heavy)']",-28.752,Fernando Cattani,Fernando Cattani > Cotriba CA 113,BRAZIL,2014-06-08 00:00:00,v3.0,No,(BR) Planalto,(BR) Rio Grande do Sul,2014-11-03 00:00:00,6035790,12600
Bad,2D16D772-A45A-4BFD-8112-DF65EB5EC939,-38.3258068078948,"['clay (light)', 'clay(heavy)']",-26.219746666666698,Ari Tomé Kichel,Ari Tomé Kichel > Ari Tomé Kichel_2013 Review,BRAZIL,2014-06-10 00:00:00,v3.0,No,(BR) Norte,(BR) Rio Grande do Sul,2014-10-30 00:00:00,5560744,12801
Unknown,2D34B5D9-924E-4103-A8E2-390877B1C277,35.2647,[],51.2944,"ООО ""Льговагроинвест""","ООО ""Льговагроинвест"" > 238 га",RUSSIAN FEDERATION,2014-03-29 00:00:00,v3.0,No,(RU) Central,(RU) Kursk,2014-08-06 00:00:00,592010,7567
Unknown,2D41CB11-842B-46D2-AD19-BF24642944D9,120.11200000000001,['sandy clay'],33.346,Mingxiao Cheng,Mingxiao Cheng > MxC,CHINA,2013-10-30 00:00:00,v3.0,Yes,(CN) Yancheng,(CN) Jiangsu,2014-05-23 00:00:00,1815826,11623
Unknown,2D471485-D773-40BF-B51B-E48D085F6D0A,-63.1527,[],-37.5362,Cristian Kriger,Cristian Kriger > La Emilia,ARGENTINA,2014-07-10 00:00:00,v3.0,No,(AR) SO - Puan,(AR) Buenos Aires,2014-12-10 00:00:00,6634608,12303
Bad,2DA1929D-B107-4CBE-A0B2-AEE386866A16,-58.0945,"['clay (light)', 'clay(heavy)']",-31.89,Gaston Baldi,Gaston Baldi > Chacra Lanterna,URUGUAY,2014-07-01 00:00:00,v3.0,No,(UY) Norte,(UY) Paysandu,2014-11-28 00:00:00,6248577,27597
Unknown,2E02C9A2-6631-46CF-807C-DB5648FAF901,101.55799999999999,"['clay (light)', 'clay(heavy)']",38.263000000000005,Zhongde Dong,Zhongde Dong > Zhongde,CHINA,2014-04-10 00:00:00,v3.0,Yes,(CH) Gansu,(CH) Gansu,2014-09-20 00:00:00,1478971,11698
Unknown,2E176AEB-E5F1-433B-A31E-AC38FB1A06E7,38.1129,[],51.6787,КФХ Кораблев,КФХ Кораблев > 70 га,RUSSIAN FEDERATION,2014-04-08 00:00:00,v3.0,No,(RU) Central,(RU) Kursk,2014-08-03 00:00:00,567299,7562
Unknown,2E377ABA-0CAC-46CB-B425-CA0B3B175D92,-63.0706,[],-37.4593,Bayer,Bayer > Omar Bayer,ARGENTINA,2014-07-15 00:00:00,v3.0,No,(AR) SO - Puan,(AR) Buenos Aires,2014-12-17 00:00:00,6629659,12303
Unknown,2E4AC2CA-4317-4FB1-B52B-6C414390D205,-60.4522,[],-34.2522,CarboneJulio,CarboneJulio > Carbone,ARGENTINA,2014-07-07 00:00:00,v3.0,No,(AR) CN - Bragado,(AR) Buenos Aires,2014-12-12 00:00:00,6411895,12290
Bad,2E849BA9-3ADC-4CC9-AC0E-8D9998EB02E6,-57.5207,['sandy clay'],-31.5214,Osvaldo Thome,Osvaldo Thome > Establecimiento Jose Thome,URUGUAY,2014-07-02 00:00:00,v3.0,No,(UY) Norte,(UY) Paysandu,2014-11-28 00:00:00,6223835,27599
Good,2E8E00AD-A1BE-426D-AC8B-5845404A8864,-96.8999,['silty clay'],46.8769,,Tony Rosing 001 Field,UNITED STATES,2013-05-05 00:00:00,v3.0,No,(US) Midwest,(US) North Dakota,2013-08-10 00:00:00,892144,4714
Bad,2E948177-49A5-41CB-AA6D-07AD4FF5B7D5,-112.20299999999999,[],43.7099,Double L Farms,Double L Farms > 156 Acre Power Plant,UNITED STATES,2013-04-15 00:00:00,v3.0,Yes,(US) Eastern Idaho,(US) Idaho,2013-08-10 00:00:00,1104783,5045
Bad,2EED8983-213C-4D63-90A6-6796EAB6B74F,-52.3375,"['clay (light)', 'clay(heavy)']",-27.914,Marcio Jose Vechiatto,Marcio Jose Vechiatto > Campo 01,BRAZIL,2014-06-04 00:00:00,v3.0,No,(BR) Norte,(BR) Rio Grande do Sul,2014-10-21 00:00:00,5981356,12864
Good,2F0740FB-1446-4FAD-A638-179B1DDDA876,-113.69,[],42.7286,Rett Cameron,Rett Cameron > 750 N 100 W,UNITED STATES,2014-04-04 00:00:00,v3.0,Yes,(US) Southern Idaho,(US) Idaho,2014-08-01 00:00:00,1174063,5049
Unknown,2F08A44B-FE82-47AA-9355-5A5794FFC473,-51.3071,"['clay (light)', 'clay(heavy)']",-28.2884,Vitorino João Tonin,Vitorino João Tonin > Campo 01,BRAZIL,2014-06-15 00:00:00,v3.0,No,(BR) Norte,(BR) Rio Grande do Sul,2014-11-15 00:00:00,6006120,12644
Bad,2F0C9757-E84E-4AB7-893A-B75C79C13CCD,-112.309,[],48.3518,STOLTZ RANCH,STOLTZ RANCH > 80 AC AT HOUSE,UNITED STATES,2014-05-20 00:00:00,v3.0,Yes,(US) Conrad,(US) Montana,2014-09-20 00:00:00,792932,4814
Unknown,2F1F950C-DDD7-4575-872E-2F790DEC6642,120.227,['sandy clay'],33.668,Guanping Li,Guanping Li > Guanping Li,CHINA,2013-10-23 00:00:00,v3.0,Yes,(CN) Yancheng,(CN) Jiangsu,2014-05-25 00:00:00,1791078,11530
Bad,2F65C10E-8B7F-4CE9-B1AA-A3425B590B3D,-57.1354,['sandy clay'],-34.2442,Bertinat Horacio,Bertinat Horacio > Casa,URUGUAY,2014-07-11 00:00:00,v3.0,No,(UY) Sur,(UY) Colonia,2014-11-29 00:00:00,6411940,27601
Unknown,2FA3680C-32FC-4ADF-A58F-CDCACB3FA476,-111.98,"['clay (light)', 'clay(heavy)']",43.6571,Jake Tanner,Jake Tanner > Butikofer,UNITED STATES,2014-04-15 00:00:00,v3.0,Yes,(US) Eastern Idaho,(US) Idaho,2014-09-01 00:00:00,1109736,5045
Bad,2FD09BD8-4D3E-4B74-B501-9A25378E9834,-57.3407,[],-33.5857,Nelson Banchero,Nelson Banchero > Miguelete,URUGUAY,2014-06-26 00:00:00,v3.0,No,(UY) Sur,(UY) Colonia,2014-12-13 00:00:00,6367387,27601
Unknown,2FEB5105-CF0B-4B80-8F81-1A1CFCD98C3D,-97.29,"['clay (light)', 'clay(heavy)']",49.152,Roger Barnabe,Roger Barnabe > 2014 Indian Reserve Field,CANADA,2014-06-16 00:00:00,v3.0,No,(CA) Red River Valley,(CA) Manitoba,2014-08-20 00:00:00,738688,4714
Bad,300F9A80-E43B-4567-90F9-DFE9E1050A08,-52.1846,"['clay (light)', 'clay(heavy)']",-27.9503,Altair Ascari,Altair Ascari > Campo 01,BRAZIL,2014-06-13 00:00:00,v3.0,No,(BR) Norte,(BR) Rio Grande do Sul,2014-11-06 00:00:00,5981358,12842
Bad,3012AE8C-6A9A-462D-90DB-BE8444415EB3,81.9888,[],53.0895,Stimul,Stimul > Stimul - 7,RUSSIAN FEDERATION,2014-05-20 00:00:00,v3.0,No,(RU) West Siberia,(RU) Altai,2014-09-04 00:00:00,468902,7568
Good,30143D5C-D3E4-4FDF-BBFD-9B36BEE1285A,-114.905,['silty clay'],42.7143,Magic Irrigators Inc,Magic Irrigators Inc > 95 13 E Sec 2,UNITED STATES,2013-10-01 00:00:00,v3.0,Yes,(US) Southern Idaho,(US) Idaho,2014-07-15 00:00:00,1174046,5049
Unknown,3018284D-A4EC-472F-B7EA-10477CFC6EB3,-60.3456,[],-35.2834,Mauricio Bottaro,Mauricio Bottaro > Maindumvi,ARGENTINA,2014-06-16 00:00:00,v3.0,No,(AR) CN - Bragado,(AR) Buenos Aires,2014-12-06 00:00:00,6481196,12293
Bad,30255AA0-94E8-4168-9A57-E48EBDDDD43A,-64.2811,[],-35.2136,El Campo SA,El Campo SA > Oscar tello,ARGENTINA,2014-08-09 00:00:00,v3.0,No,(AR) O - Rivera,(AR) La Pampa,2014-12-18 00:00:00,6476192,12292
Unknown,3032B3AC-46DF-456A-A704-B216513F8E2D,102.03399999999999,"['clay (light)', 'clay(heavy)']",38.43,Guojun Xu,Guojun Xu > Guojun Xu,CHINA,2014-03-10 00:00:00,v3.0,Yes,(CH) Gansu,(CH) Gansu,2014-08-10 00:00:00,1469078,11287
Unknown,3033A61C-A1AC-4404-86F8-F6C800B2FBFF,100.479,['sandy clay'],38.567,Shizhong Duan,Shizhong Duan > Shizhong Duan,CHINA,2014-04-08 00:00:00,v3.0,Yes,(CH) Gansu,(CH) Gansu,2014-08-15 00:00:00,1459157,11698
Unknown,304587F3-49D0-471D-BC03-9AAECC08E46C,36.5151,[],51.9314,ООО Трейдагросервис,ООО Трейдагросервис > 2014 - 187 га,RUSSIAN FEDERATION,2014-04-13 00:00:00,v3.0,No,(RU) Central,(RU) Kursk,2014-08-03 00:00:00,547477,7576
Unknown,30489BBB-DBCC-45D9-98AD-EB1185E14E43,-60.5207,[],-35.150999999999996,Signorio,Signorio > Signorio 4,ARGENTINA,2014-06-26 00:00:00,v3.0,No,(AR) CN - Bragado,(AR) Buenos Aires,2014-12-08 00:00:00,6471294,12293
Unknown,305B9999-FAA8-4F0F-BF86-CA66A59A8FCA,36.4734,[],51.1606,КФХ Некипеловой Н. И.,КФХ Некипеловой Н. И. > 120 га,RUSSIAN FEDERATION,2014-04-05 00:00:00,v3.0,No,(RU) Central,(RU) Kursk,2014-08-14 00:00:00,601927,7497
Bad,307FCF78-3471-40BE-BE2F-4CF36C9C0F53,-53.2328,"['clay (light)', 'clay(heavy)']",-31.5604,Daniele Franco Peixoto,Daniele Franco Peixoto > Cotribá AG36,BRAZIL,2014-06-20 00:00:00,v3.0,No,(BR) Sul,(BR) Rio Grande do Sul,2014-12-01 00:00:00,6228844,12820
Bad,310321BE-F95D-4E36-A3A7-205FA766F960,-111.91,['silty clay'],48.1521,SHAWN VERMULM,SHAWN VERMULM > 100 ac,UNITED STATES,2014-04-25 00:00:00,v3.0,Yes,(US) Conrad,(US) Montana,2014-08-15 00:00:00,802837,4814
Unknown,3120D236-42C6-4E6A-92BC-B5E39EDB9375,-113.432,['sandy clay'],43.872,GARY WIGHT,GARY WIGHT > 2014 pivot 7,UNITED STATES,2014-04-18 00:00:00,v3.0,Yes,(US) Eastern Idaho,(US) Idaho,2014-09-10 00:00:00,1094866,4744
Bad,313A4412-598A-41F3-AE1B-9950A651F514,-52.5104,"['clay (light)', 'clay(heavy)']",-28.2507,Victor Adriano Burgel,Victor Adriano Burgel > Faz.Burgel,BRAZIL,2014-06-11 00:00:00,v3.0,No,(BR) Planalto,(BR) Rio Grande do Sul,2014-10-29 00:00:00,6001154,12600
Bad,31408BA7-D3F9-4B36-9D3A-6520A4F5AE3A,-104.096,[],47.7553,Steve Joslin,Steve Joslin > South Pivot,UNITED STATES,2014-04-20 00:00:00,v3.0,Yes,(US) Mondak,(US) Montana,2014-08-12 00:00:00,832645,4814
Unknown,316DE062-8762-4046-92C3-3AE938EBB845,120.236,['sandy clay'],33.668,Xihai Sun,Xihai Sun > XHS,CHINA,2013-10-04 00:00:00,v3.0,Yes,(CN) Yancheng,(CN) Jiangsu,2014-05-11 00:00:00,1791078,11530
Unknown,317B057F-2139-4AF9-BFD9-645188DC1751,-104.471,[],52.2823,Spruce Grove Farms,Spruce Grove Farms > Home Field,CANADA,2014-05-23 00:00:00,v3.0,No,(CA) Kindersley,(CA) Saskatchewan,2014-09-09 00:00:00,525740,4681
Bad,3197A240-C6D0-415F-853B-C6557C45AFDE,-52.1099,"['clay (light)', 'clay(heavy)']",-28.3789,Marcio Tibola,Marcio Tibola > Campo Cevada,BRAZIL,2014-06-13 00:00:00,v3.0,No,(BR) Norte,(BR) Rio Grande do Sul,2014-11-03 00:00:00,6011059,12864
Good,319B5C97-A42E-4B3B-9D32-C726BA162D0E,-98.2168,[],48.1551,Jon Varnson,Jon Varnson > 2014 Secion 26,UNITED STATES,2014-05-25 00:00:00,v3.0,No,(US) NE Midwest,(US) North Dakota,2014-09-02 00:00:00,803026,4668
Unknown,31B5A098-7A29-477A-A005-94593718BA86,-105.523,[],52.7766,Ken Melnyk,Ken Melnyk > 2014- Home Field,CANADA,2014-05-19 00:00:00,v3.0,No,(CA) Central Saskatchewan,(CA) Saskatchewan,2014-10-21 00:00:00,491075,3416
Good,31E546DF-DF73-4825-9375-B757D704B2E6,-60.0411,[],-37.2743,HUMBERTO RE,HUMBERTO RE > San Fermin,ARGENTINA,2014-07-22 00:00:00,v3.0,No,(AR) SE - Tandil,(AR) Buenos Aires,2014-12-24 00:00:00,6614850,12249
Unknown,31EAD913-880D-4B7B-854C-50A70AE1EA8A,-59.5942,['silty clay'],-38.6572,Martinez Arturo Benjamin,Martinez Arturo Benjamin > MARTI,ARGENTINA,2014-07-27 00:00:00,v3.0,No,(AR) S - Carretero,(AR) Buenos Aires,2014-12-18 00:00:00,6708906,12302
Unknown,32137262-6432-4DBC-BE97-1E48BB68E953,102.814,['silty clay'],37.679,Long Yang,Long Yang > Longy,CHINA,2014-03-15 00:00:00,v3.0,Yes,(CH) Gansu,(CH) Gansu,2014-07-20 00:00:00,1518589,11698
Unknown,323491FE-FE7F-49D4-9E82-18D0CF5B70AB,-113.791,['silty clay'],42.6541,Don Suhr,Don Suhr > 700,UNITED STATES,2014-04-14 00:00:00,v3.0,Yes,(US) Southern Idaho,(US) Idaho,2014-08-29 00:00:00,1179012,5049
Unknown,32BA300D-8346-40FD-ABB7-30313814D4E6,121.515,['sandy clay'],49.32899999999999,"IM farmer-1, China>Zhixuan Qian","IM farmer-1, China>Zhixuan Qian > 2014-IM-01",CHINA,2014-05-28 00:00:00,v3.0,No,(CN) Hailaer,(CN) Inner Mongolia,2014-09-01 00:00:00,726846,11119
Bad,32C8A1D0-3B77-4995-807A-0FB86FFBDDE9,-52.5316,"['clay (light)', 'clay(heavy)']",-28.2408,Giordano Schiochet,Giordano Schiochet > Faz.Schiochet,BRAZIL,2014-06-04 00:00:00,v3.0,No,(BR) Planalto,(BR) Rio Grande do Sul,2014-10-25 00:00:00,6001153,12600
Unknown,330281A9-24BE-49C3-97EA-7335CD02F0F6,-106.016,[],51.2926,Stone Farms Inc.,Stone Farms Inc. > Home Field,CANADA,2014-06-06 00:00:00,v3.0,No,(CA) Central Saskatchewan,(CA) Saskatchewan,2014-10-18 00:00:00,590068,4779
Unknown,330CBD4C-BA4C-442A-8960-F7E06910448A,102.811,['silty clay'],37.685,Wanlai Kou,Wanlai Kou > Wanlai  Kou,CHINA,2014-03-15 00:00:00,v3.0,Yes,(CH) Gansu,(CH) Gansu,2014-07-20 00:00:00,1518589,11698
Unknown,3341725E-E0B2-4663-B16C-C750C03FE2B9,-62.0088,[],-37.7686,Agrosila SA,Agrosila SA > Los Moritos,ARGENTINA,2014-08-04 00:00:00,v3.0,No,(AR) S - Copetona,(AR) Buenos Aires,2014-12-20 00:00:00,6649473,12302
Good,3365E225-D404-488B-80A6-F3BD93012919,-59.2788,[],-37.2511,MAURO MANAZZONI,MAURO MANAZZONI > LA BODEGA,ARGENTINA,2014-07-02 00:00:00,v3.0,No,(AR) SE - Tandil,(AR) Buenos Aires,2014-12-18 00:00:00,6614861,12249
Unknown,33B6BDF3-86DD-457D-955F-E094243264DB,-62.0019,[],-37.0988,Los Gurru,Los Gurru > Conde,ARGENTINA,2014-07-20 00:00:00,v3.0,No,(AR) SO - Suarez,(AR) Buenos Aires,2014-12-18 00:00:00,6604923,12301
Unknown,33C71F0A-E111-4D4B-BA5A-E9C8C14A0C35,-112.12899999999999,[],43.5363,Hansen Farms Inc,Hansen Farms Inc > Isom Pivot,UNITED STATES,2014-03-26 00:00:00,v3.0,Yes,(US) Eastern Idaho,(US) Idaho,2014-08-16 00:00:00,1119634,5045
Bad,33D8CFDF-2FE1-41A0-9985-CA250C8950A3,-53.465,"['clay (light)', 'clay(heavy)']",-29.1948,André Emerson de Mello Pereira,André Emerson de Mello Pereira > Boa Vista,BRAZIL,2014-07-20 00:00:00,v3.0,No,(BR) Centro,(BR) Rio Grande do Sul,2014-11-15 00:00:00,6065491,12864
Unknown,33FD54AD-79B5-4A5E-BE4D-6410365BCD0B,-98.5838,['silty clay'],47.2186,Chuck Bartz,Chuck Bartz > 2014 Section 7,UNITED STATES,2014-05-15 00:00:00,v3.0,No,(US) NE Midwest,(US) North Dakota,2014-08-25 00:00:00,867371,4668
Unknown,342297DC-F586-4450-9D98-B55505B69DE5,-59.3847,[],-37.7047,ARRILLAGA,ARRILLAGA > ARRILLAGA,ARGENTINA,2014-05-30 00:00:00,v3.0,No,(AR) SE - Tandil,(AR) Buenos Aires,2014-12-12 00:00:00,6644559,12249
Unknown,34933B15-E6EB-4F67-A46E-2063084A2BEF,120.24600000000001,['sandy clay'],33.992,Weifeng Tang,Weifeng Tang > WFT,CHINA,2013-11-25 00:00:00,v3.0,Yes,(CN) Yancheng,(CN) Jiangsu,2014-05-25 00:00:00,1771278,11499
Bad,34CA1537-022F-483F-9C2D-F75188613841,-60.6996,[],-38.0198,Queipo Roberto Manuel,Queipo Roberto Manuel > QUEIPO,ARGENTINA,2014-06-07 00:00:00,v3.0,No,(AR) S - Copetona,(AR) Buenos Aires,2014-12-17 00:00:00,6664341,12302
Unknown,34F6617D-8BF1-4821-81C1-FA7BD9D1FC5D,-103.025,[],47.0366,Tyler Meduna,Tyler Meduna > Stanleys,UNITED STATES,2014-05-18 00:00:00,v3.0,No,(US) SW Midwest,(US) North Dakota,2014-08-14 00:00:00,882159,4826
Unknown,35351B1E-993C-4FE5-9AC7-2CC575F0014C,121.512,"['clay (light)', 'clay(heavy)']",49.333,IM-09>Jinsong Ji,IM-09>Jinsong Ji > IM09,CHINA,2014-05-28 00:00:00,v3.0,No,(CH) Gansu,(CN) Inner Mongolia,2014-09-09 00:00:00,726846,11119
Unknown,3542395E-0B88-4381-BD41-1F762EFB74D5,36.0854,"['clay (light)', 'clay(heavy)']",50.473,"ООО ""Бутово-Агро""","ООО ""Бутово-Агро"" > 60 га",RUSSIAN FEDERATION,2014-03-17 00:00:00,v3.0,No,(RU) Central,(RU) Belgorod,2014-08-25 00:00:00,646471,8453
Bad,3552E12C-3C83-48F3-AF81-3BBB8DAF7BFC,-57.9698,[],-32.2244,"Cuevasanta, Hugo","Cuevasanta, Hugo > Fondo",URUGUAY,2014-06-25 00:00:00,v3.0,No,(UY) Norte,(UY) Paysandu,2014-11-18 00:00:00,6273329,27598
Unknown,3566841D-99C1-4375-8549-B5435CC06CCA,36.8032,"['clay (light)', 'clay(heavy)']",51.6003,КФХ Нащекин,КФХ Нащекин > 100 га,RUSSIAN FEDERATION,2014-04-10 00:00:00,v3.0,No,(RU) Central,(RU) Kursk,2014-08-02 00:00:00,572231,8438
Unknown,3578FF4C-CD9D-4C4F-9916-AC3CDC719501,-58.191,['sandy clay'],-33.4345,Cecilio Parentelli,Cecilio Parentelli > Agraciada,URUGUAY,2014-06-30 00:00:00,v3.0,No,(UY) Sur,(UY) Colonia,2014-11-27 00:00:00,6352526,27598
Unknown,35C14166-D9B6-4301-87F7-21E6F60D4653,-112.086,"['clay (light)', 'clay(heavy)']",47.8203,Don Passmore Farms,Don Passmore Farms > Field 1,UNITED STATES,2014-04-17 00:00:00,v3.0,Yes,(US) Fairfield,(US) Montana,2014-08-21 00:00:00,827585,4814
Unknown,3615EC38-311B-458A-93D6-55377F825C29,-104.054,['sandy clay'],47.7699,T & J Farms Inc,T & J Farms Inc > Todd's,UNITED STATES,2014-04-16 00:00:00,v3.0,Yes,(US) Mondak,(US) Montana,2014-08-10 00:00:00,832645,4814
Unknown,3642CF30-BC26-49DA-8935-A2F7AA29FA77,36.0757,"['clay (light)', 'clay(heavy)']",51.0341,ИП Глава КФХ Смирнова О. С.,ИП Глава КФХ Смирнова О. С. > 100 га,RUSSIAN FEDERATION,2014-03-27 00:00:00,v3.0,No,(RU) Central,(RU) Belgorod,2014-07-22 00:00:00,611821,7497
Unknown,365D7980-6B7E-4FD6-ADA4-D3230F3D76D0,-101.913,[],47.3555,Dennis Flemmer,Dennis Flemmer > Weidrich,UNITED STATES,2014-05-02 00:00:00,v3.0,No,(US) SW Midwest,(US) North Dakota,2014-08-27 00:00:00,857425,4814
Unknown,366408A1-9E74-4A23-A68E-0F49D95C0C25,-59.6378,['silty clay'],-38.6196,LA CARAMBOLA,LA CARAMBOLA > CARAMBOLA,ARGENTINA,2014-06-21 00:00:00,v3.0,No,(AR) S - Copetona,(AR) Buenos Aires,2014-12-11 00:00:00,6708906,12302
Bad,366C7E31-3CA0-4547-8418-7DA977FBE95F,75.6937,[],54.7561,Lenina,Lenina > Lenina - 4,RUSSIAN FEDERATION,2014-06-02 00:00:00,v3.0,No,(RU) West Siberia,(RU) Novosibirsk,2014-09-15 00:00:00,359916,8361
Bad,36A0F3CD-B08D-43DA-ADBE-1EC0299921F9,-52.1042,"['clay (light)', 'clay(heavy)']",-28.0411,Landrimar Pelissaro,Landrimar Pelissaro > Talhão Gali,BRAZIL,2014-06-08 00:00:00,v3.0,No,(BR) Norte,(BR) Rio Grande do Sul,2014-11-01 00:00:00,5986309,12864
Unknown,36AEA23E-A463-4FE6-BC4B-8841428C582F,34.9304,"['clay (light)', 'clay(heavy)']",51.2493,ИП Глава КФХ Дерюгина О. Н.,ИП Глава КФХ Дерюгина О. Н. > 40 га,RUSSIAN FEDERATION,2014-03-18 00:00:00,v3.0,No,(RU) Central,(RU) Kursk,2014-07-21 00:00:00,596956,7497
Unknown,36C58128-D106-4B90-89F1-6112B6F72138,120.23899999999999,['sandy clay'],33.664,Jincong Sheng,Jincong Sheng > JCS,CHINA,2013-11-02 00:00:00,v3.0,Yes,(CN) Yancheng,(CN) Jiangsu,2014-05-10 00:00:00,1791078,11530
Good,36D6EFA1-86D0-446D-AE5F-D4C9DD560118,-100.16799999999999,['silty clay'],46.4294,BRUCE DOOLITTLE,BRUCE DOOLITTLE > 2014 Field,UNITED STATES,2014-04-22 00:00:00,v3.0,No,(US) SE Midwest,(US) North Dakota,2014-08-04 00:00:00,921799,4814
Unknown,36DD3C4B-E276-4FC2-8362-A212D6389A58,100.476,['sandy clay'],38.565,Fenglin Xu,Fenglin Xu > Fenglin Xu,CHINA,2014-04-03 00:00:00,v3.0,Yes,(CH) Gansu,(CH) Gansu,2014-08-30 00:00:00,1459156,11180
Unknown,36FBEF15-8C1B-4980-AA4E-CF1002513BB1,-104.119,"['clay (light)', 'clay(heavy)']",47.7205,Danny Strasheim,Danny Strasheim > By House,UNITED STATES,2014-04-18 00:00:00,v3.0,Yes,(US) Mondak,(US) Montana,2014-08-05 00:00:00,832644,4814
Bad,372CB810-1058-40F6-84EF-5D0C98A176A1,-58.1141,"['clay (light)', 'clay(heavy)']",-33.3448,"Milano, Luis","Milano, Luis > Nuevo",URUGUAY,2014-06-20 00:00:00,v3.0,No,(UY) Norte,(UY) Paysandu,2014-11-18 00:00:00,6347577,27598
Unknown,373DBE68-9759-4D19-A601-89BCBF86D7A3,-98.5794,[],48.3844,John Martinson,John Martinson > 2014 Section 30,UNITED STATES,2014-05-20 00:00:00,v3.0,No,(US) NE Midwest,(US) North Dakota,2014-09-15 00:00:00,788171,4682
Unknown,3744783E-FAF6-47C8-A985-9D84A457C3AC,-101.311,[],48.9005,Mike Artz,Mike Artz > 2014 Field,UNITED STATES,2014-05-11 00:00:00,v3.0,No,(US) NE Midwest,(US) North Dakota,2014-08-15 00:00:00,753483,4675
Unknown,374BDCFB-4BAF-4DAD-9B79-4F1C183D0746,35.2804,[],51.1911,"ЗАО АПК ""Колос- Агро""","ЗАО АПК ""Колос- Агро"" > 120 га",RUSSIAN FEDERATION,2014-03-20 00:00:00,v3.0,No,(RU) Central,(RU) Kursk,2014-07-28 00:00:00,601910,7567
Bad,37D07BC8-412F-4E25-B044-1EC6249A8280,-52.8567,"['clay (light)', 'clay(heavy)']",-31.3,Vilmar Marquezin,Vilmar Marquezin > Piratini 4,BRAZIL,2014-06-22 00:00:00,v3.0,No,(BR) Sul,(BR) Rio Grande do Sul,2014-11-25 00:00:00,6209049,12820
Bad,3806E316-9F73-48A7-8EF3-A2F3DC5295B3,-52.8356,"['clay (light)', 'clay(heavy)']",-27.6835,Ataides Serafini,Ataides Serafini > Campo dos Pinheiros,BRAZIL,2014-06-05 00:00:00,v3.0,No,(BR) Norte,(BR) Rio Grande do Sul,2014-10-28 00:00:00,5961549,12864
Bad,382533CB-75A7-4C81-A0CF-FF0926CBE65C,-111.99799999999999,[],43.9953,Ellsworth Farms,Ellsworth Farms > Home field,UNITED STATES,2014-04-20 00:00:00,v3.0,Yes,(US) Eastern Idaho,(US) Idaho,2014-08-20 00:00:00,1084986,5045
Unknown,382D3E0D-D5F8-4A40-8B3B-1A5F390931E0,36.4146,"['clay (light)', 'clay(heavy)']",51.1406,ИП Глава КФХ Урманова О. Ю.,ИП Глава КФХ Урманова О. Ю. > 100 га,RUSSIAN FEDERATION,2014-03-28 00:00:00,v3.0,No,(RU) Central,(RU) Kursk,2014-08-04 00:00:00,601926,7569
Unknown,38870FD0-AB73-4F79-9D9A-AF468194C10E,-113.382,[],43.8017,Robert Moss,Robert Moss > Field 1,UNITED STATES,2014-04-15 00:00:00,v3.0,Yes,(US) Eastern Idaho,(US) Idaho,2014-09-12 00:00:00,1099817,5070
Unknown,38992783-0037-483F-9B07-0EC9F9D6745A,108.314,"['clay (light)', 'clay(heavy)']",50.0987,Gaylord Thomsen,Gaylord Thomsen > Home Field,CANADA,2014-05-05 00:00:00,v3.0,No,(CA) Central Saskatchewan,(CA) Saskatchewan,2014-09-09 00:00:00,1018762,18042
Unknown,389CB75E-DC53-46E7-9568-C3D3291C9AEA,-61.1024,[],-38.2534,sitodini,sitodini > la luna,ARGENTINA,2014-06-23 00:00:00,v3.0,No,(AR) O - Daireaux,(AR) Buenos Aires,2014-11-29 00:00:00,6684136,12302
Bad,38B48E56-A2C0-4FCC-8AA5-4B372888D39A,-52.2748,"['clay (light)', 'clay(heavy)']",-27.505,Renato Gatti,Renato Gatti > Volta Grande,BRAZIL,2014-06-17 00:00:00,v3.0,No,(BR) Norte,(BR) Rio Grande do Sul,2014-11-03 00:00:00,5951657,12864
Unknown,38CEF325-C7B7-4220-9175-9507309815B9,-99.1535,['sandy clay'],46.7361,CHRIS LARSON,CHRIS LARSON > 2014 Field,UNITED STATES,2014-05-16 00:00:00,v3.0,No,(US) SE Midwest,(US) North Dakota,2014-08-22 00:00:00,902013,4667
Bad,38FA55F6-90AD-433F-A195-E83A889DB17C,-57.453,['silty clay'],-34.2139,Vranich Hugo,Vranich Hugo > Vranich Hugo > Reducto,URUGUAY,2014-06-26 00:00:00,v3.0,No,(UY) Sur,(UY) Colonia,2014-11-26 00:00:00,6406986,27601
Bad,3926D903-AA50-42A3-97D2-7072BEEA07F1,-103.765,[],47.8836,Ed Mrachek,Ed Mrachek > Buddys,UNITED STATES,2014-04-29 00:00:00,v3.0,No,(US) Mondak,(US) North Dakota,2014-08-10 00:00:00,822749,4814
Good,394FDB10-0452-4DEF-B2A7-3C383C173FEC,-59.7879,['silty clay'],-37.1529,Milanessi Marcos,Milanessi Marcos > Milanessi,ARGENTINA,2014-07-30 00:00:00,v3.0,No,(AR) SE - Necochea,(AR) Buenos Aires,2014-12-27 00:00:00,6609904,12249
Unknown,395DCBC5-1F75-4288-B205-50731D3D9DBA,-112.55,"['clay (light)', 'clay(heavy)']",43.9739,Brice Mitchell,Brice Mitchell > Grandpas,UNITED STATES,2014-04-15 00:00:00,v3.0,Yes,(US) Eastern Idaho,(US) Idaho,2014-08-20 00:00:00,1089929,5049
Unknown,39AD9E8C-F517-4B0D-A780-00C938419F00,-60.5934,[],-38.2042,PECAMAR S.A.,PECAMAR S.A. > EL MIRADOR,ARGENTINA,2014-06-10 00:00:00,v3.0,No,(AR) S - Copetona,(AR) Buenos Aires,2014-12-11 00:00:00,6679193,12302
Good,3A1CC7EF-DF7E-4009-9D0C-A539DF824428,-59.2024,[],-37.4704,FERAZ S.A,FERAZ S.A > FERAZ,ARGENTINA,2014-06-18 00:00:00,v3.0,No,(AR) SE - Tandil,(AR) Buenos Aires,2014-12-14 00:00:00,6629712,12249
Unknown,3A2ECEA2-22F2-47DE-871B-2D2456ECE847,-60.0649,[],-38.5321,HUMBERTO LUIS RE,HUMBERTO LUIS RE > DOS MECHAS,ARGENTINA,2014-06-08 00:00:00,v3.0,No,(AR) S - Carretero,(AR) Buenos Aires,2014-12-22 00:00:00,6699000,12302
Unknown,3A411B3F-056C-446B-A46B-221BE95FD6BF,-61.7653,[],-37.8002,Meier,Meier > La Paz,ARGENTINA,2014-08-08 00:00:00,v3.0,No,(AR) SO - Suarez,(AR) Buenos Aires,2014-12-22 00:00:00,6649477,12302
Bad,3A43BE65-1C4C-4D50-AD4A-71351BE16BE6,-51.6139,"['clay (light)', 'clay(heavy)']",-28.3799,Nevio Francesquetti,Nevio Francesquetti > Campo 01,BRAZIL,2014-06-13 00:00:00,v3.0,No,(BR) Norte,(BR) Rio Grande do Sul,2014-11-09 00:00:00,6011066,12644
Bad,3A454971-1D74-40AD-B99D-F8BCFF9F0E04,-58.068999999999996,['sandy clay'],-31.9293,Vazquez Hnos,"Vazquez Hnos > Vazquez, Arroyo San Pedro",URUGUAY,2014-06-15 00:00:00,v3.0,No,(UY) Norte,(UY) Paysandu,2014-12-14 00:00:00,6253527,27597
Unknown,3A466DF5-1F07-4F5C-8777-73A989CF870F,-111.70299999999999,[],43.946999999999996,Kevin Daw,Kevin Daw > Home Place,UNITED STATES,2014-05-10 00:00:00,v3.0,Yes,(US) Eastern Idaho,(US) Idaho,2014-08-20 00:00:00,1089940,4782
Unknown,3A6B46DE-B2C3-4E63-B5C3-C6025074EC84,-57.178000000000004,['sandy clay'],-34.426,Darío Tourn,Darío Tourn > Casa,URUGUAY,2014-07-07 00:00:00,v3.0,No,(UY) Sur,(UY) Colonia,2014-11-24 00:00:00,6421840,27603
Bad,3A8F24EE-C9B0-4AD0-A9A1-1A7D008A0FDF,-58.1959,['sandy clay'],-33.4351,Ricardo Vignolo,Ricardo Vignolo > Buena vista,URUGUAY,2014-08-10 00:00:00,v3.0,No,(UY) Sur,(UY) Colonia,2014-11-24 00:00:00,6352526,27598
Unknown,3A9C385E-FE2C-4890-B8BA-A4D7D27C153B,-112.288,[],47.5805,Orville Forseth,Orville Forseth > Home Place,UNITED STATES,2014-05-01 00:00:00,v3.0,Yes,(US) Fairfield,(US) Montana,2014-09-10 00:00:00,842432,4814
Unknown,3ABE0AF5-236B-441F-B1EB-9CADBB722E1B,-58.2314,['sandy clay'],-33.5035,Horacio Buerga,Horacio Buerga > Cañada Nieto,URUGUAY,2014-06-26 00:00:00,v3.0,No,(UY) Sur,(UY) Colonia,2014-12-05 00:00:00,6357475,27598
Unknown,3ACEF487-730D-494B-B8F7-3658EAC0A001,-62.2103,['sandy clay'],-38.0734,Cia Procesadora de Carnes,Cia Procesadora de Carnes > Torquinst,ARGENTINA,2014-07-15 00:00:00,v3.0,No,(AR) O - Rivera,(AR) Buenos Aires,2014-12-23 00:00:00,6669270,12303
Unknown,3AD53403-494F-46C4-BD1D-107969430921,96.781,['sandy clay'],39.859,Jianfeng Kang,Jianfeng Kang > Jianfeng Kang,CHINA,2014-04-01 00:00:00,v3.0,Yes,(CH) Gansu,(CH) Gansu,2014-08-26 00:00:00,1370006,11697
Unknown,3AF479C6-B5AA-4971-ABE7-6819A7757970,120.426,['sandy clay'],33.529,Xuechang Shen,Xuechang Shen > XCS,CHINA,2013-11-13 00:00:00,v3.0,Yes,(CN) Yancheng,(CN) Jiangsu,2014-05-26 00:00:00,1800981,11524
Unknown,3B2521C1-2891-4BA6-89B1-E7F9D9868502,-60.5032,['silty clay'],-38.2327,Di Marco Juan Pablo,Di Marco Juan Pablo > Gonzales Lote 4,ARGENTINA,2014-08-01 00:00:00,v3.0,No,(AR) S - Copetona,(AR) Buenos Aires,2014-12-19 00:00:00,6679194,12302
Unknown,3B28F15D-FDF4-4E21-98A8-C050052156B1,102.03399999999999,['sandy clay'],38.431999999999995,Senyuan Chai,Senyuan Chai > Senyuan Chai,CHINA,2014-03-20 00:00:00,v3.0,Yes,(CH) Gansu,(CH) Gansu,2014-08-01 00:00:00,1469078,11287
Unknown,3B81427F-3D44-475E-84E0-DB754637C2A2,-63.6714,[],-35.6145,Tobal,Tobal > El 43,ARGENTINA,2014-06-20 00:00:00,v3.0,No,(AR) O - Rivera,(AR) La Pampa,2014-11-29 00:00:00,6500950,12292
Good,3B9CE049-22A1-49EA-A9CC-77BFF0EDACAE,96.773,['sandy clay'],39.783,Zhenjun Yang,Zhenjun Yang > Zhenjun Yang,CHINA,2014-04-01 00:00:00,v3.0,Yes,(CH) Gansu,(CH) Gansu,2014-08-25 00:00:00,1374956,11291
Bad,3C14A4B6-65D2-449C-A3B6-6B6C7E18AC9F,-51.4866,"['clay (light)', 'clay(heavy)']",-28.4237,Marino Tieppo,Marino Tieppo > Campo 01,BRAZIL,2014-07-15 00:00:00,v3.0,No,(BR) Norte,(BR) Rio Grande do Sul,2014-11-12 00:00:00,6016018,12644
Bad,3C197A80-4A9C-4836-B008-8127F4E9EDB7,-58.0086,['silty clay'],-32.3205,"PONTTI, SEBASTIAN","PONTTI, SEBASTIAN > MENGUI",URUGUAY,2014-06-17 00:00:00,v3.0,No,(UY) Norte,(UY) Paysandu,2014-11-29 00:00:00,6278278,27598
Unknown,3C29FD87-675D-4B51-8079-BB1B3AFFD5B0,-62.4675,[],-37.4318,Feuilles,Feuilles > 4 de Noviembre,ARGENTINA,2014-08-02 00:00:00,v3.0,No,(AR) SO - Puan,(AR) Buenos Aires,2014-12-15 00:00:00,6624717,12302
Bad,3C6EAD4F-A397-40C3-A6F4-513D1DB46BAA,82.0038,[],53.0449,Dolgov,Dolgov > Dolgov - 30,RUSSIAN FEDERATION,2014-06-02 00:00:00,v3.0,No,(RU) West Siberia,(RU) Altai,2014-09-25 00:00:00,473853,7475
Unknown,3CAE4565-021D-4384-868D-A88BEB2E72B7,102.25200000000001,['silty clay'],38.209,Shengde Liang,Shengde Liang > Shengde Liang,CHINA,2014-04-04 00:00:00,v3.0,Yes,(CH) Gansu,(CH) Gansu,2014-08-04 00:00:00,1483931,11698
Good,3CB0FB86-E420-4C0B-9342-A4422CC09D02,-58.9104,[],-37.9432,LOPEZ STELLA,LOPEZ STELLA > La Macia,ARGENTINA,2014-06-15 00:00:00,v3.0,No,(AR) SE - Necochea,(AR) Buenos Aires,2014-12-14 00:00:00,6659416,12302
Bad,3CC2B0BB-3D1C-4183-BA20-9741AE082BC8,-111.885,[],43.7003,Richard Little,Richard Little > W 1/2 Golf Course,UNITED STATES,2014-04-13 00:00:00,v3.0,Yes,(US) Eastern Idaho,(US) Idaho,2014-08-10 00:00:00,1104788,5045
Unknown,3CD3C83D-4A41-43BD-92DE-1B6DBFFBABD3,100.54799999999999,"['clay (light)', 'clay(heavy)']",38.541,Changbiao Du,Changbiao Du > Changbiao Du,CHINA,2014-04-10 00:00:00,v3.0,Yes,(CH) Gansu,(CH) Gansu,2014-08-09 00:00:00,1459157,11180
Unknown,3CDE1088-897A-44F9-A277-87A909DC9C94,-103.48299999999999,[],51.9179,Lonetree Livestock,Lonetree Livestock > Home Field,CANADA,2014-05-05 00:00:00,v3.0,No,(CA) Central Saskatchewan,(CA) Saskatchewan,2014-09-09 00:00:00,550503,4681
Unknown,3CE1231F-D850-4511-B507-B35979F37597,35.3938,[],51.0411,ИП глава КФХ Черкашин Н.К.,ИП глава КФХ Черкашин Н.К. > 125 га,RUSSIAN FEDERATION,2014-03-28 00:00:00,v3.0,No,(RU) Central,(RU) Kursk,2014-07-24 00:00:00,611812,7565
Good,3CEE25AB-7B4D-4282-B7E8-0154A9ABCF37,96.681,['sandy clay'],39.802,Zhicheng Liu,Zhicheng Liu > Zhicheng Liu,CHINA,2014-04-01 00:00:00,v3.0,Yes,(CH) Gansu,(CH) Gansu,2014-08-25 00:00:00,1374954,11291
Unknown,3CFE4014-C96A-417B-8544-6EA89A0C671E,-59.7797,[],-38.6513,Etcheto Hnas,Etcheto Hnas > El Puesto Lote 5,ARGENTINA,2014-06-15 00:00:00,v3.0,No,(AR) S - Carretero,(AR) Buenos Aires,2014-12-19 00:00:00,6708904,12302
Bad,3D0DDFAD-2882-4885-A3A7-F0E0BD47C790,-57.4321,[],-32.4311,Gonzalo Torres Negreira,Gonzalo Torres Negreira > San Luis,URUGUAY,2014-06-28 00:00:00,v3.0,No,(UY) Norte,(UY) Paysandu,2014-11-27 00:00:00,6288186,27597
Unknown,3D28E44E-71A2-4A8E-B9CE-55796214ED3F,121.264,['silty clay'],48.868,IM-40>Junxi Luo,IM-40>Junxi Luo > IM-40,CHINA,2014-05-29 00:00:00,v3.0,No,(CN) Hailaer,(CN) Inner Mongolia,2014-09-09 00:00:00,756542,11119
Good,3D3770B6-2711-4F57-8585-5E033EE509B4,-57.2322,['sandy clay'],-34.4222,Franco Malan,Franco Malan > Valdense,URUGUAY,2014-07-06 00:00:00,v3.0,No,(UY) Sur,(UY) Colonia,2014-11-24 00:00:00,6421839,27603
Unknown,3D883422-A946-4F6D-B650-F2F8AD096997,-112.10600000000001,"['clay (light)', 'clay(heavy)']",43.67,Wade Beckman,Wade Beckman > Bassett Rd,UNITED STATES,2014-04-15 00:00:00,v3.0,Yes,(US) Eastern Idaho,(US) Idaho,2014-08-05 00:00:00,1109735,5045
Bad,3D95E2F6-F6D2-49D1-B67F-A10DC1714D3F,-52.1812,"['clay (light)', 'clay(heavy)']",-27.561,Edimar Bianchi,Edimar Bianchi > Faz. Bianchi,BRAZIL,2014-06-14 00:00:00,v3.0,No,(BR) Planalto,(BR) Rio Grande do Sul,2014-11-01 00:00:00,5956608,12864
Unknown,3DCC14FE-6038-49D2-9BFD-CBB1D3380787,-111.866,[],48.1598,OWEN ANDERSON,OWEN ANDERSON > 135 ac,UNITED STATES,2014-05-15 00:00:00,v3.0,No,(US) Conrad,(US) Montana,2014-09-04 00:00:00,802838,4814
Unknown,3DE10300-CFD1-429B-87B0-33BDCC657EA1,-59.5323,[],-37.2272,Jorge Lastieri,Jorge Lastieri > La Pastora Chica,ARGENTINA,2014-07-26 00:00:00,v3.0,No,(AR) SE - Tandil,(AR) Buenos Aires,2014-12-26 00:00:00,6614857,12249
Unknown,3E0EAE1E-BF54-49B1-B7BF-582B12D39B7C,-61.375,[],-34.0669,Miguel Cuella,Miguel Cuella > Mantegna,ARGENTINA,2014-06-18 00:00:00,v3.0,No,(AR) CN - Arribeños,(AR) Buenos Aires,2014-12-28 00:00:00,6397032,12290
Unknown,3E336B4F-0865-4259-BCF0-AA36B1A1EEF1,121.32700000000001,['silty clay'],48.312,IM52>Xiqi Jing,IM52>Xiqi Jing > IM52,CHINA,2014-05-27 00:00:00,v3.0,No,(CN) Hailaer,(CN) Inner Mongolia,2014-09-09 00:00:00,796143,11407
Unknown,3E640627-6A71-4335-ABE6-3EB7D4EDA532,120.184,['sandy clay'],34.145,Minghe Zhao,Minghe Zhao > Minghe Zhao,CHINA,2013-10-25 00:00:00,v3.0,Yes,(CN) Yancheng,(CN) Jiangsu,2014-05-25 00:00:00,1761377,11522
Unknown,3E99F8B3-2F6C-48CB-B3A0-1F92D1CAE835,-96.7577,['sandy clay'],48.4785,Jensen Farms,Jensen Farms > 2014 Franks,UNITED STATES,2014-05-12 00:00:00,v3.0,No,(US) NE Midwest,(US) Minnesota,2014-08-15 00:00:00,783246,4714
Good,3EB2AC2A-A7FD-495C-84FF-7A04BFC7E196,-114.37,[],42.5735,Cedar Draw,Cedar Draw > Cedar Draw,UNITED STATES,2013-03-14 00:00:00,v3.0,Yes,(US) Southern Idaho,(US) Idaho,2013-08-02 00:00:00,1183954,5049
Unknown,3EE343E8-9F40-4629-ABB5-E6CB5A393444,-111.794,[],48.1484,2D FARMS,2D FARMS > 20 AC N OF HOUSE,UNITED STATES,2014-04-22 00:00:00,v3.0,No,(US) Conrad,(US) Montana,2014-08-14 00:00:00,802839,4814
Bad,3F463B80-310A-4826-B542-4FC5D6883D04,73.1393,[],54.6311,Azovskoe,Azovskoe > Azovskoe - 10,RUSSIAN FEDERATION,2014-05-27 00:00:00,v3.0,No,(RU) West Siberia,(RU) Omsk,2014-09-07 00:00:00,364831,8363
Unknown,3F6D6B73-6698-4349-9ED1-68FBBD60F992,-57.2544,[],-31.5056,G. Parente,"G. Parente > Gustavo Parente, El abrojo",URUGUAY,2014-06-23 00:00:00,v3.0,No,(UY) Norte,(UY) Paysandu,2014-12-12 00:00:00,6223839,27599
Unknown,401A5007-6D8F-4920-A560-386337CD6F1A,121.925,"['clay (light)', 'clay(heavy)']",48.758,IM-25>Hongxuan Shao,IM-25>Hongxuan Shao > IM-25,CHINA,2014-05-19 00:00:00,v3.0,No,(CN) Hailaer,(CN) Inner Mongolia,2014-09-09 00:00:00,766451,11119
Unknown,402D2B16-0277-4663-B4FD-56879FB198BC,-62.4476,[],-37.5846,Bras,Bras > San Roberto,ARGENTINA,2014-07-15 00:00:00,v3.0,No,(AR) SO - Suarez,(AR) Buenos Aires,2014-12-18 00:00:00,6634617,12302
Bad,402DE55F-B8C0-41B6-8E73-72E318D0A96A,-57.4409,['sandy clay'],-31.9096,"Kilin, Anatoly","Kilin, Anatoly > Ombú",URUGUAY,2014-06-20 00:00:00,v3.0,No,(UY) Norte,(UY) Paysandu,2014-12-01 00:00:00,6248586,27600
Bad,406FFBCB-E18D-452B-BFA5-1B3FB450AF95,-58.1311,['silty clay'],-33.103,Eduardo Porro,Eduardo Porro > Colonia Tomas Berreta,URUGUAY,2014-06-05 00:00:00,v3.0,No,(UY) Norte,(UY) Rio Negro,2014-11-13 00:00:00,6332727,27598
Unknown,4086F931-27A2-46F9-82E3-AE4759AE466A,-112.178,[],43.5094,ROGER HODGES,ROGER HODGES > 2014 Acro Hwy,UNITED STATES,2014-04-15 00:00:00,v3.0,Yes,(US) Eastern Idaho,(US) Idaho,2014-08-15 00:00:00,1119634,5045
Unknown,408D40F2-E878-48DC-BBD4-29734A15C9CD,-112.09299999999999,[],47.5672,George Mellinger,George Mellinger > Field 1,UNITED STATES,2014-04-12 00:00:00,v3.0,Yes,(US) Fairfield,(US) Montana,2014-08-15 00:00:00,842435,4814
Bad,40B62E73-0FD0-4BA2-9831-F35E0D45B0AD,44.2109,[],52.8381,Jemfresh,Jemfresh > Explorer_215ha,RUSSIAN FEDERATION,2014-05-03 00:00:00,v3.0,No,(RU) Volgo-Vyatskiy,(RU) Penza,2014-08-20 00:00:00,488183,7576
Unknown,40CC2F55-E4B6-4049-8710-6B2E8D647177,121.51100000000001,"['clay (light)', 'clay(heavy)']",49.333999999999996,IM-13>Tianyu Mu,IM-13>Tianyu Mu > IM-13,CHINA,2014-05-21 00:00:00,v3.0,No,(CN) Hailaer,(CN) Inner Mongolia,2014-09-02 00:00:00,726846,11119
Unknown,4107173B-87A8-49AD-B557-1D94E4F9A45D,-60.1416,[],-38.4133,LA UNION DE VASSOLO S.A.,LA UNION DE VASSOLO S.A. > LA AURORA,ARGENTINA,2014-06-25 00:00:00,v3.0,No,(AR) S - Carretero,(AR) Buenos Aires,2014-12-12 00:00:00,6694049,12302
Bad,410D93E2-4F86-497B-9608-1CCE1C64E008,-57.5942,"['clay (light)', 'clay(heavy)']",-32.1938,Yazaldebere José Luis,Yazaldebere José Luis > Paysandú,URUGUAY,2014-06-20 00:00:00,v3.0,No,(UY) Norte,(UY) Paysandu,2014-11-18 00:00:00,6268384,27597
Unknown,4145E04D-A75C-4948-B024-A815901A6D5D,-108.05799999999999,[],50.073,Kendell Radtke,Kendell Radtke > 2014 Field,CANADA,2014-05-05 00:00:00,v3.0,No,(CA) Central Saskatchewan,(CA) Saskatchewan,2014-09-05 00:00:00,674190,4819
Unknown,415135AA-B175-4D79-9D63-EB3FA5B2E698,-104.126,['silty clay'],47.7215,Steffan Farms,Steffan Farms > Pivot 1,UNITED STATES,2014-04-20 00:00:00,v3.0,Yes,(US) Mondak,(US) Montana,2014-08-07 00:00:00,832644,4814
Unknown,41768D92-C7B7-431A-9FAA-3BA39187FADB,-111.98100000000001,[],43.7003,Mel Briggs,Mel Briggs > Mothers,UNITED STATES,2014-04-12 00:00:00,v3.0,Yes,(US) Eastern Idaho,(US) Idaho,2014-08-12 00:00:00,1104786,5045
Unknown,417D8E19-6117-4A0B-B814-512E7044F95B,-111.961,['silty clay'],48.1712,"TOM ELLIS FARMS, INC","TOM ELLIS FARMS, INC > 107 AC SEC 6",UNITED STATES,2014-04-30 00:00:00,v3.0,No,(US) Conrad,(US) Montana,2014-08-21 00:00:00,802837,4814
Unknown,419F868E-B8E2-4C0E-8873-79558A9202ED,-58.1816,['sandy clay'],-33.5039,Edgardo Bonacea,Edgardo Bonacea > Nueva Palmira,URUGUAY,2014-07-02 00:00:00,v3.0,No,(UY) Sur,(UY) Colonia,2014-11-24 00:00:00,6357476,27598
Bad,42505CCD-3F45-464C-A4E9-A7F6202C6B35,-57.483000000000004,['sandy clay'],-32.2101,Leonardo Elizondo,Leonardo Elizondo > Tosca Colonia 19 de abril,URUGUAY,2014-06-24 00:00:00,v3.0,No,(UY) Norte,(UY) Paysandu,2014-11-15 00:00:00,6273335,27597
Unknown,4258BE54-65C9-42B3-AAE3-41CDFBE62135,-112.26100000000001,[],43.8667,Place Farms,Place Farms > Place Farms #4,UNITED STATES,2013-04-08 00:00:00,v3.0,Yes,(US) Eastern Idaho,(US) Idaho,2013-08-15 00:00:00,1094883,5045
Unknown,42A0117C-3802-4760-8A8A-6B616AF023C8,-59.8159,['sandy clay'],-38.4603,Pellegrini Hugo,Pellegrini Hugo > PELLEGRINI,ARGENTINA,2014-07-14 00:00:00,v3.0,No,(AR) S - Copetona,(AR) Buenos Aires,2014-12-28 00:00:00,6699003,12302
Bad,42CCFC13-CB67-42C0-BD51-7A9DCA5F8192,-54.1335,"['clay (light)', 'clay(heavy)']",-28.8079,Leandro Rittel,Leandro Rittel > Carajá Grande,BRAZIL,2014-06-20 00:00:00,v3.0,No,(BR) Centro,(BR) Rio Grande do Sul,2014-11-05 00:00:00,6040731,12864
Bad,42DA8A0F-9563-408C-BA4E-0873AF2B97BA,-52.1833,"['clay (light)', 'clay(heavy)']",-27.5041,Alexandre Nargibe,Alexandre Nargibe > Fazenda Nargibe,BRAZIL,2014-07-15 00:00:00,v3.0,No,(BR) Planalto,(BR) Rio Grande do Sul,2014-11-10 00:00:00,5951658,12864
Unknown,42EDEBA3-78BC-4024-A322-405D31990C49,37.4309,"['clay (light)', 'clay(heavy)']",51.5053,"ОАО ""Советская МТС""","ОАО ""Советская МТС"" > 183 га",RUSSIAN FEDERATION,2014-04-12 00:00:00,v3.0,No,(RU) Central,(RU) Kursk,2014-07-28 00:00:00,577190,7497
Bad,4303A524-A000-401F-B60C-E5D215DF2DBB,-57.195,['sandy clay'],-34.1708,Christian Von Rappard,Christian Von Rappard > Ruta,URUGUAY,2014-06-20 00:00:00,v3.0,No,(UY) Sur,(UY) Colonia,2014-11-29 00:00:00,6406989,27601
Unknown,4315A205-0EE8-44C3-8E4F-C8312D25412F,-98.5315,[],47.4062,Dennis Walen,Dennis Walen > 2014 Section 2,UNITED STATES,2014-05-18 00:00:00,v3.0,No,(US) NE Midwest,(US) North Dakota,2014-08-15 00:00:00,857471,4675
Unknown,433FB090-B0F2-47D1-95E0-994371D56D39,-103.92,[],48.0096,David Braaten,David Braaten > Sec. 18,UNITED STATES,2014-04-10 00:00:00,v3.0,Yes,(US) Mondak,(US) North Dakota,2014-08-01 00:00:00,812847,4814
Bad,4347D573-20EF-4DD9-8A83-58889057C1AF,-52.9771,"['clay (light)', 'clay(heavy)']",-28.649,Jorge Carlos Schwaab,Jorge Carlos Schwaab > Jorge Schwaab,BRAZIL,2014-06-05 00:00:00,v3.0,No,(BR) Planalto,(BR) Rio Grande do Sul,2014-10-22 00:00:00,6030847,12864
Unknown,436CE8A8-3268-47C7-9755-00DBCA49024E,121.92299999999999,"['clay (light)', 'clay(heavy)']",48.75899999999999,IM-18>Huai Zou,IM-18>Huai Zou > IM-18,CHINA,2014-05-19 00:00:00,v3.0,No,(CN) Hailaer,(CN) Inner Mongolia,2014-09-06 00:00:00,766451,11119
Bad,4383BF31-27BD-4F5E-BD7C-8C4319D6E4EC,-53.2305,['sandy clay'],-32.321999999999996,Gilmar Bottega Borba,Gilmar Bottega Borba > Cotribá AG40,BRAZIL,2014-06-15 00:00:00,v3.0,No,(BR) Sul,(BR) Rio Grande do Sul,2014-11-04 00:00:00,6278344,12820
Bad,43968D09-0D64-4A97-AECD-643B63C34DA0,-57.161,['silty clay'],-34.4359,Alían Bonjour,Alían Bonjour > Casa,URUGUAY,2014-07-10 00:00:00,v3.0,No,(UY) Sur,(UY) Colonia,2014-12-04 00:00:00,6421840,27603
Bad,43AF765D-2898-44AF-826C-36C9FD9BD3DB,-52.0163,"['clay (light)', 'clay(heavy)']",-27.524,Alcidir Antonio Sartori,Alcidir Antonio Sartori > Campo 01,BRAZIL,2014-06-10 00:00:00,v3.0,No,(BR) Norte,(BR) Rio Grande do Sul,2014-11-01 00:00:00,5951661,12842
Bad,43F09142-0650-435D-BD2F-35A8DE60C7B0,-51.9379,"['clay (light)', 'clay(heavy)']",-28.0922,Ivanir Valpiana,Ivanir Valpiana > Campo 01,BRAZIL,2014-06-26 00:00:00,v3.0,No,(BR) Norte,(BR) Rio Grande do Sul,2014-10-28 00:00:00,5991262,12864
Unknown,44012C79-92A4-400E-A125-16188BEDB57B,-111.977,['silty clay'],43.6593,Reyne Tanner,Reyne Tanner > Home Place,UNITED STATES,2014-04-05 00:00:00,v3.0,Yes,(US) Eastern Idaho,(US) Idaho,2014-08-15 00:00:00,1109736,5045
Bad,440CBC58-74E5-48C0-9DE2-F70DDD86FA08,-52.8078,"['clay (light)', 'clay(heavy)']",-27.8107,Amarildo de Bona,Amarildo de Bona > Campo 01,BRAZIL,2014-05-28 00:00:00,v3.0,No,(BR) Planalto,(BR) Rio Grande do Sul,2014-10-27 00:00:00,5971450,12864
Unknown,443E4010-C37F-41A5-88B7-FC6887A6E9E0,-62.9942,['sandy clay'],-36.4672,Jose Marcaida,Jose Marcaida > La Juaquina,ARGENTINA,2014-06-16 00:00:00,v3.0,No,(AR) O - Daireaux,(AR) Buenos Aires,2014-12-03 00:00:00,6560360,12293
Unknown,44472A15-9512-4CDA-9238-8D41B88E1F24,-62.3796,[],-36.494,La Paca Agricola,La Paca Agricola > La Paca,ARGENTINA,2014-06-18 00:00:00,v3.0,No,(AR) SO - Suarez,(AR) Buenos Aires,2014-12-20 00:00:00,6560368,12293
Unknown,446BCEC5-7B53-488B-A717-36F675F67D1A,102.056,"['clay (light)', 'clay(heavy)']",38.446,Zhiqiang Sun,Zhiqiang Sun > Zhiqiang Sun,CHINA,2014-03-10 00:00:00,v3.0,Yes,(CH) Gansu,(CH) Gansu,2014-08-05 00:00:00,1469078,11173
Bad,4480DD71-5C6B-4FC7-8865-015DC7753702,-53.0673,"['clay (light)', 'clay(heavy)']",-31.5385,Westermann,Westermann > Piratini 01,BRAZIL,2014-06-25 00:00:00,v3.0,No,(BR) Sul,(BR) Rio Grande do Sul,2014-11-14 00:00:00,6223896,12820
Unknown,449185D9-C687-4BE4-B965-EA18427BBA64,36.0145,"['clay (light)', 'clay(heavy)']",51.223,КФХ Переверзева А. П.,КФХ Переверзева А. П. > 100 га,RUSSIAN FEDERATION,2014-04-03 00:00:00,v3.0,No,(RU) Central,(RU) Kursk,2014-08-12 00:00:00,596970,8036
Good,44AA5D85-A1F9-46F8-A9A8-710DF504E012,-99.25399999999999,[],48.1441,Leon Pfeifer,Leon Pfeifer > 2014 Sec 22,UNITED STATES,2014-05-10 00:00:00,v3.0,No,(US) NE Midwest,(US) North Dakota,2014-08-15 00:00:00,803011,4668
Unknown,44C4F697-07E0-4F5D-A6EF-910ABAF19D3D,-112.221,['silty clay'],47.5701,Cody Gulick,Cody Gulick > Field 1,UNITED STATES,2014-04-21 00:00:00,v3.0,Yes,(US) Fairfield,(US) Montana,2014-08-08 00:00:00,842433,4814
Unknown,44EF728F-4839-438C-B468-EAEA93F36A42,-63.1494,[],-36.1514,Eduardo Pereda y Hnas. S.C.A.,Eduardo Pereda y Hnas. S.C.A. > El Clavo,ARGENTINA,2014-06-18 00:00:00,v3.0,No,(AR) O - Rivera,(AR) Buenos Aires,2014-11-26 00:00:00,6540558,12292
Unknown,4538833A-66F5-4595-B51F-6669784F2EF4,44.6718,[],53.9813,Istok,Istok > Beatrix_114ha,RUSSIAN FEDERATION,2014-04-25 00:00:00,v3.0,No,(RU) Volgo-Vyatskiy,(RU) Mordovia,2014-08-20 00:00:00,408989,8044
Unknown,454CC576-F4E8-429F-882F-E0A01B8BCBCB,102.03399999999999,[],38.431,Junde Chen,Junde Chen > Junde Chen,CHINA,2014-03-24 00:00:00,v3.0,Yes,(CH) Gansu,(CH) Gansu,2014-08-15 00:00:00,1469078,11287
Unknown,45681488-8A3C-4F93-8C50-BA9C9D92B8EB,-101.311,[],48.915,Stacy Artz,Stacy Artz > Stacy Artz 2014 Field,UNITED STATES,2014-05-11 00:00:00,v3.0,No,(US) NE Midwest,(US) North Dakota,2014-08-15 00:00:00,753483,4675
Bad,457A595D-2B87-4CEA-8AA8-42FD61D5BE3F,-52.1303,"['clay (light)', 'clay(heavy)']",-28.1743,Juliano Manfroi,Juliano Manfroi > Faz. Mato Castelhano,BRAZIL,2014-06-20 00:00:00,v3.0,No,(BR) Norte,(BR) Rio Grande do Sul,2014-11-08 00:00:00,5996209,12864
